{
   "results" : [
      {
         "address_components" : [
            {
               "long_name" : "155号",
               "short_name" : "155号",
               "types" : [ "street_number" ]
            },
            {
               "long_name" : "Shun Huang Lu",
               "short_name" : "Shun Huang Lu",
               "types" : [ "route" ]
            },
            {
               "long_name" : "Chaoyang Qu",
               "short_name" : "Chaoyang Qu",
               "types" : [ "political", "sublocality", "sublocality_level_1" ]
            },
            {
               "long_name" : "Beijing",
               "short_name" : "Beijing",
               "types" : [ "locality", "political" ]
            },
            {
               "long_name" : "Beijing Shi",
               "short_name" : "Beijing Shi",
               "types" : [ "administrative_area_level_1", "political" ]
            },
            {
               "long_name" : "China",
               "short_name" : "CN",
               "types" : [ "country", "political" ]
            }
         ],
         "formatted_address" : "155 Shun Huang Lu, Chaoyang Qu, Beijing Shi, China",
         "geometry" : {
            "bounds" : {
               "northeast" : {
                  "lat" : 40.0586023,
                  "lng" : 116.5221982
               },
               "southwest" : {
                  "lat" : 40.0582997,
                  "lng" : 116.5136967
               }
            },
            "location" : {
               "lat" : 40.0583211,
               "lng" : 116.5146098
            },
            "location_type" : "RANGE_INTERPOLATED",
            "viewport" : {
               "northeast" : {
                  "lat" : 40.05979998029149,
                  "lng" : 116.5221982
               },
               "southwest" : {
                  "lat" : 40.05710201970849,
                  "lng" : 116.5136967
               }
            }
         },
         "place_id" : "EifkuK3lm73ljJfkuqzluILmnJ3pmLPljLrpobrpu4Tot68xNTXlj7c",
         "types" : [ "street_address" ]
      },
      {
         "address_components" : [
            {
               "long_name" : "Chaoyang",
               "short_name" : "Chaoyang",
               "types" : [ "political", "sublocality", "sublocality_level_1" ]
            },
            {
               "long_name" : "Beijing",
               "short_name" : "Beijing",
               "types" : [ "locality", "political" ]
            },
            {
               "long_name" : "Beijing",
               "short_name" : "Beijing",
               "types" : [ "administrative_area_level_1", "political" ]
            },
            {
               "long_name" : "China",
               "short_name" : "CN",
               "types" : [ "country", "political" ]
            }
         ],
         "formatted_address" : "Chaoyang, Beijing, China",
         "geometry" : {
            "bounds" : {
               "northeast" : {
                  "lat" : 40.107933,
                  "lng" : 116.6452732
               },
               "southwest" : {
                  "lat" : 39.8097688,
                  "lng" : 116.3508829
               }
            },
            "location" : {
               "lat" : 39.92147,
               "lng" : 116.443108
            },
            "location_type" : "APPROXIMATE",
            "viewport" : {
               "northeast" : {
                  "lat" : 40.107933,
                  "lng" : 116.6452732
               },
               "southwest" : {
                  "lat" : 39.8097688,
                  "lng" : 116.3508829
               }
            }
         },
         "place_id" : "ChIJR2lzI-6r8TUROoHQJjCLu9c",
         "types" : [ "political", "sublocality", "sublocality_level_1" ]
      },
      {
         "address_components" : [
            {
               "long_name" : "Beijing",
               "short_name" : "Beijing",
               "types" : [ "locality", "political" ]
            },
            {
               "long_name" : "Beijing",
               "short_name" : "Beijing",
               "types" : [ "administrative_area_level_1", "political" ]
            },
            {
               "long_name" : "China",
               "short_name" : "CN",
               "types" : [ "country", "political" ]
            }
         ],
         "formatted_address" : "Beijing, China",
         "geometry" : {
            "bounds" : {
               "northeast" : {
                  "lat" : 41.0608159,
                  "lng" : 117.514625
               },
               "southwest" : {
                  "lat" : 39.4427581,
                  "lng" : 115.4234116
               }
            },
            "location" : {
               "lat" : 39.904211,
               "lng" : 116.407395
            },
            "location_type" : "APPROXIMATE",
            "viewport" : {
               "northeast" : {
                  "lat" : 40.2164962,
                  "lng" : 116.7829835
               },
               "southwest" : {
                  "lat" : 39.6612714,
                  "lng" : 116.0119343
               }
            }
         },
         "place_id" : "ChIJuSwU55ZS8DURiqkPryBWYrk",
         "types" : [ "locality", "political" ]
      },
      {
         "address_components" : [
            {
               "long_name" : "101312",
               "short_name" : "101312",
               "types" : [ "postal_code" ]
            },
            {
               "long_name" : "Shunyi",
               "short_name" : "Shunyi",
               "types" : [ "political", "sublocality", "sublocality_level_1" ]
            },
            {
               "long_name" : "Beijing",
               "short_name" : "Beijing",
               "types" : [ "locality", "political" ]
            },
            {
               "long_name" : "Beijing",
               "short_name" : "Beijing",
               "types" : [ "administrative_area_level_1", "political" ]
            },
            {
               "long_name" : "China",
               "short_name" : "CN",
               "types" : [ "country", "political" ]
            }
         ],
         "formatted_address" : "Shunyi, Beijing, China, 101312",
         "geometry" : {
            "bounds" : {
               "northeast" : {
                  "lat" : 40.145258,
                  "lng" : 116.7187041
               },
               "southwest" : {
                  "lat" : 40.0303196,
                  "lng" : 116.5034724
               }
            },
            "location" : {
               "lat" : 40.0647331,
               "lng" : 116.5808321
            },
            "location_type" : "APPROXIMATE",
            "viewport" : {
               "northeast" : {
                  "lat" : 40.1001738,
                  "lng" : 116.6081652
               },
               "southwest" : {
                  "lat" : 40.0303196,
                  "lng" : 116.5034724
               }
            }
         },
         "place_id" : "ChIJx6tpl20G8TURwF1FKjbFias",
         "types" : [ "postal_code" ]
      },
      {
         "address_components" : [
            {
               "long_name" : "Beijing",
               "short_name" : "Beijing",
               "types" : [ "administrative_area_level_1", "political" ]
            },
            {
               "long_name" : "China",
               "short_name" : "CN",
               "types" : [ "country", "political" ]
            }
         ],
         "formatted_address" : "Beijing, China",
         "geometry" : {
            "bounds" : {
               "northeast" : {
                  "lat" : 41.0608159,
                  "lng" : 117.514625
               },
               "southwest" : {
                  "lat" : 39.4427581,
                  "lng" : 115.4234116
               }
            },
            "location" : {
               "lat" : 39.904211,
               "lng" : 116.407395
            },
            "location_type" : "APPROXIMATE",
            "viewport" : {
               "northeast" : {
                  "lat" : 41.0608159,
                  "lng" : 117.514625
               },
               "southwest" : {
                  "lat" : 39.4427581,
                  "lng" : 115.4234116
               }
            }
         },
         "place_id" : "ChIJuSwU55ZS8DURp8_dOLuVd8A",
         "types" : [ "administrative_area_level_1", "political" ]
      },
      {
         "address_components" : [
            {
               "long_name" : "China",
               "short_name" : "CN",
               "types" : [ "country", "political" ]
            }
         ],
         "formatted_address" : "China",
         "geometry" : {
            "bounds" : {
               "northeast" : {
                  "lat" : 53.56097399999999,
                  "lng" : 134.7728099
               },
               "southwest" : {
                  "lat" : 17.9996,
                  "lng" : 73.4994136
               }
            },
            "location" : {
               "lat" : 35.86166,
               "lng" : 104.195397
            },
            "location_type" : "APPROXIMATE",
            "viewport" : {
               "northeast" : {
                  "lat" : 53.56097399999999,
                  "lng" : 134.7726951
               },
               "southwest" : {
                  "lat" : 18.1618061,
                  "lng" : 73.5034261
               }
            }
         },
         "place_id" : "ChIJwULG5WSOUDERbzafNHyqHZU",
         "types" : [ "country", "political" ]
      }
   ],
   "status" : "OK"
}
