{"results":[{"address_components":[{"long_name":"Pak Xeng - Sam Soun Road","short_name":"Pak Xeng - Sam Soun Rd","types":["route"]},{"long_name":"Luang Prabang Province","short_name":"Luang Prabang Province","types":["administrative_area_level_1","political"]},{"long_name":"Laos","short_name":"LA","types":["country","political"]}],"formatted_address":"Pak Xeng - Sam Soun Rd, Laos","place_id":"ChIJBWj7_w30LjER4thjan2HTH0","geometry":{"bounds":{"northeast":{"lat":20.1726813,"lng":102.7421021},"southwest":{"lat":20.1641704,"lng":102.7079478}},"types":null},"types":["route"]},{"address_components":[{"long_name":"Luang Prabang Province","short_name":"Luang Prabang Province","types":["administrative_area_level_1","political"]},{"long_name":"Laos","short_name":"LA","types":["country","political"]}],"formatted_address":"Luang Prabang Province, Laos","place_id":"ChIJ-1Vy5szvLjERek7q3fgwKxo","geometry":{"bounds":{"northeast":{"lat":21.145014,"lng":103.402969},"southwest":{"lat":19.0528441,"lng":101.710163}},"types":null},"types":["administrative_area_level_1","political"]},{"address_components":[{"long_name":"Laos","short_name":"LA","types":["country","political"]}],"formatted_address":"Laos","place_id":"ChIJiUWCsFeQFDERgc2ZH0iSxQ4","geometry":{"bounds":{"northeast":{"lat":22.502872,"lng":107.69483},"southwest":{"lat":13.90972,"lng":100.0832139}},"types":null},"types":["country","political"]}],"City":null,"IsValid":false}