{"results":[{"address_components":[{"long_name":"244 Sheng Dao","short_name":"S244","types":["route"]},{"long_name":"Fengning Manzuzizhixian","short_name":"Fengning Manzuzizhixian","types":["political","sublocality","sublocality_level_1"]},{"long_name":"Chengde Shi","short_name":"Chengde Shi","types":["locality","political"]},{"long_name":"Hebei Sheng","short_name":"Hebei Sheng","types":["administrative_area_level_1","political"]},{"long_name":"China","short_name":"CN","types":["country","political"]}],"formatted_address":"244 Sheng Dao, Fengning Manzuzizhixian, Chengde Shi, Hebei Sheng, China","place_id":"ChIJrX-v6eSU9zURIQN3GVtjzh4","geometry":{"bounds":{"northeast":{"lat":41.6305764,"lng":115.9874896},"southwest":{"lat":41.6257061,"lng":115.9849105}},"types":null},"types":["route"]},{"address_components":[{"long_name":"Fengning","short_name":"Fengning","types":["political","sublocality","sublocality_level_1"]},{"long_name":"Chengde","short_name":"Chengde","types":["locality","political"]},{"long_name":"Hebei","short_name":"Hebei","types":["administrative_area_level_1","political"]},{"long_name":"China","short_name":"CN","types":["country","political"]}],"formatted_address":"Fengning, Chengde, Hebei, China","place_id":"ChIJ4RbV0B5F9jURFi9JzS-G99U","geometry":{"bounds":{"northeast":{"lat":42.0099443,"lng":117.3998334},"southwest":{"lat":40.8960024,"lng":115.9099918}},"types":null},"types":["political","sublocality","sublocality_level_1"]},{"address_components":[{"long_name":"Chengde","short_name":"Chengde","types":["locality","political"]},{"long_name":"Hebei","short_name":"Hebei","types":["administrative_area_level_1","political"]},{"long_name":"China","short_name":"CN","types":["country","political"]}],"formatted_address":"Chengde, Hebei, China","place_id":"ChIJ46cMeWEH9TUR8e2mNR_Bg78","geometry":{"bounds":{"northeast":{"lat":42.6197178,"lng":119.2493719},"southwest":{"lat":40.1920237,"lng":115.9099918}},"types":null},"types":["locality","political"]},{"address_components":[{"long_name":"Hebei","short_name":"Hebei","types":["administrative_area_level_1","political"]},{"long_name":"China","short_name":"CN","types":["country","political"]}],"formatted_address":"Hebei, China","place_id":"ChIJ1YZMyjCpjDURIfse5yIKRWA","geometry":{"bounds":{"northeast":{"lat":42.6197178,"lng":119.8725773},"southwest":{"lat":36.0482067,"lng":113.4653687}},"types":null},"types":["administrative_area_level_1","political"]},{"address_components":[{"long_name":"China","short_name":"CN","types":["country","political"]}],"formatted_address":"China","place_id":"ChIJwULG5WSOUDERbzafNHyqHZU","geometry":{"bounds":{"northeast":{"lat":53.560973999999987,"lng":134.7728099},"southwest":{"lat":17.9996,"lng":73.4994136}},"types":null},"types":["country","political"]}],"City":null,"IsValid":false}