{"results":[{"address_components":[{"long_name":"Bayview Avenue","short_name":"Bayview Ave","types":["route"]},{"long_name":"Rockport","short_name":"Rockport","types":["locality","political"]},{"long_name":"Essex County","short_name":"Essex County","types":["administrative_area_level_2","political"]},{"long_name":"Massachusetts","short_name":"MA","types":["administrative_area_level_1","political"]},{"long_name":"United States","short_name":"US","types":["country","political"]},{"long_name":"01966","short_name":"01966","types":["postal_code"]}],"formatted_address":"Bayview Ave, Rockport, MA 01966, USA","place_id":"ChIJGUs7_jEm44kRdSESAT9pJpk","geometry":{"bounds":{"northeast":{"lat":42.6907524,"lng":-70.6327371},"southwest":{"lat":42.6899981,"lng":-70.634509299999991}},"types":null},"types":["route"]},{"address_components":[{"long_name":"Rockport","short_name":"Rockport","types":["locality","political"]},{"long_name":"Essex County","short_name":"Essex County","types":["administrative_area_level_2","political"]},{"long_name":"Massachusetts","short_name":"MA","types":["administrative_area_level_1","political"]},{"long_name":"United States","short_name":"US","types":["country","political"]}],"formatted_address":"Rockport, MA, USA","place_id":"ChIJtxmxn4wj44kRxEM_SbyxGWw","geometry":{"bounds":{"northeast":{"lat":42.6950359,"lng":-70.565592},"southwest":{"lat":42.6184571,"lng":-70.644533}},"types":null},"types":["locality","political"]},{"address_components":[{"long_name":"01966","short_name":"01966","types":["postal_code"]},{"long_name":"Rockport","short_name":"Rockport","types":["locality","political"]},{"long_name":"Essex County","short_name":"Essex County","types":["administrative_area_level_2","political"]},{"long_name":"Massachusetts","short_name":"MA","types":["administrative_area_level_1","political"]},{"long_name":"United States","short_name":"US","types":["country","political"]}],"formatted_address":"Rockport, MA 01966, USA","place_id":"ChIJO-ygu40j44kRUbpnrn1vw90","geometry":{"bounds":{"northeast":{"lat":42.6929949,"lng":-70.5709389},"southwest":{"lat":42.625367,"lng":-70.644018}},"types":null},"types":["postal_code"]},{"address_components":[{"long_name":"Essex County","short_name":"Essex County","types":["administrative_area_level_2","political"]},{"long_name":"Massachusetts","short_name":"MA","types":["administrative_area_level_1","political"]},{"long_name":"United States","short_name":"US","types":["country","political"]}],"formatted_address":"Essex County, MA, USA","place_id":"ChIJtTxVCm8B5IkRdQoXNfYjl6Q","geometry":{"bounds":{"northeast":{"lat":42.88679,"lng":-70.5021431},"southwest":{"lat":42.384098000000009,"lng":-71.25610309999999}},"types":null},"types":["administrative_area_level_2","political"]},{"address_components":[{"long_name":"Boston-Cambridge-Quincy, MA-NH","short_name":"Boston-Cambridge-Quincy, MA-NH","types":["political"]},{"long_name":"United States","short_name":"US","types":["country","political"]}],"formatted_address":"Boston-Cambridge-Quincy, MA-NH, USA","place_id":"ChIJA9NWegR244kRF6B2phYlXis","geometry":{"bounds":{"northeast":{"lat":43.082038,"lng":-70.5255671},"southwest":{"lat":41.7628401,"lng":-71.947663}},"types":null},"types":["political"]},{"address_components":[{"long_name":"Boston-Cambridge-Quincy, MA-NH","short_name":"Boston-Cambridge-Quincy, MA-NH","types":["political"]},{"long_name":"United States","short_name":"US","types":["country","political"]}],"formatted_address":"Boston-Cambridge-Quincy, MA-NH, USA","place_id":"ChIJZ11RHIcL44kRFgTm6pE69b8","geometry":{"bounds":{"northeast":{"lat":43.573012,"lng":-70.5255671},"southwest":{"lat":41.6245321,"lng":-71.8987166}},"types":null},"types":["political"]},{"address_components":[{"long_name":"Boston Metropolitan Area","short_name":"Boston Metropolitan Area","types":["political"]},{"long_name":"United States","short_name":"US","types":["country","political"]}],"formatted_address":"Boston Metropolitan Area, USA","place_id":"ChIJQ-TFt5IL44kR1kcVhdMVrXg","geometry":{"bounds":{"northeast":{"lat":43.573012,"lng":-70.3225219},"southwest":{"lat":41.5658509,"lng":-71.8987159}},"types":null},"types":["political"]},{"address_components":[{"long_name":"Massachusetts","short_name":"MA","types":["administrative_area_level_1","establishment","point_of_interest","political"]},{"long_name":"United States","short_name":"US","types":["country","political"]}],"formatted_address":"Massachusetts, USA","place_id":"ChIJ_b9z6W1l44kRHA2DVTbQxkU","geometry":{"bounds":{"northeast":{"lat":42.88679,"lng":-69.85886099999999},"southwest":{"lat":41.187053000000013,"lng":-73.5081419}},"types":null},"types":["administrative_area_level_1","establishment","point_of_interest","political"]},{"address_components":[{"long_name":"United States","short_name":"US","types":["country","political"]}],"formatted_address":"United States","place_id":"ChIJCzYy5IS16lQRQrfeQ5K5Oxw","geometry":{"bounds":{"northeast":{"lat":71.5388001,"lng":-66.885417},"southwest":{"lat":18.7763,"lng":170.5957}},"types":null},"types":["country","political"]}],"City":null,"IsValid":false}