{"results":[{"address_components":[{"long_name":"Soi Pa Tan","short_name":"Soi Pa Tan","types":["route"]},{"long_name":"Tambon Pa Tan","short_name":"Tambon Pa Tan","types":["political","sublocality","sublocality_level_1"]},{"long_name":"Chiang Mai","short_name":"Chiang Mai","types":["locality","political"]},{"long_name":"Amphoe Mueang Chiang Mai","short_name":"Amphoe Mueang Chiang Mai","types":["administrative_area_level_2","political"]},{"long_name":"Chang Wat Chiang Mai","short_name":"จ.เชียงใหม่","types":["administrative_area_level_1","political"]},{"long_name":"Thailand","short_name":"TH","types":["country","political"]},{"long_name":"50300","short_name":"50300","types":["postal_code"]}],"formatted_address":"Soi Pa Tan, Tambon Pa Tan, Amphoe Mueang Chiang Mai, Chang Wat Chiang Mai 50300, Thailand","place_id":"ChIJIeZjzNo62jARhF_DS4n_CC4","geometry":{"bounds":{"northeast":{"lat":18.8164441,"lng":99.000411899999989},"southwest":{"lat":18.8153012,"lng":98.9997058}},"types":null},"types":["route"]},{"address_components":[{"long_name":"Pa Tan","short_name":"Pa Tan","types":["political","sublocality","sublocality_level_1"]},{"long_name":"Chiang Mai","short_name":"Chiang Mai","types":["locality","political"]},{"long_name":"Mueang Chiang Mai District","short_name":"Mueang Chiang Mai District","types":["administrative_area_level_2","political"]},{"long_name":"Chiang Mai","short_name":"จ.เชียงใหม่","types":["administrative_area_level_1","political"]},{"long_name":"Thailand","short_name":"TH","types":["country","political"]}],"formatted_address":"Pa Tan, Mueang Chiang Mai District, Chiang Mai, Thailand","place_id":"ChIJpTyQos462jARwIqL-sVGAwQ","geometry":{"bounds":{"northeast":{"lat":18.8215897,"lng":99.0060681},"southwest":{"lat":18.8001724,"lng":98.9951348}},"types":null},"types":["political","sublocality","sublocality_level_1"]},{"address_components":[{"long_name":"Chiang Mai","short_name":"Chiang Mai","types":["locality","political"]},{"long_name":"Mueang Chiang Mai District","short_name":"Mueang Chiang Mai District","types":["administrative_area_level_2","political"]},{"long_name":"Chiang Mai","short_name":"จ.เชียงใหม่","types":["administrative_area_level_1","political"]},{"long_name":"Thailand","short_name":"TH","types":["country","political"]}],"formatted_address":"Chiang Mai, Mueang Chiang Mai District, Chiang Mai, Thailand","place_id":"ChIJXW-7kH462jARZ0ObpXBi1Jg","geometry":{"bounds":{"northeast":{"lat":18.8434085,"lng":99.0512218},"southwest":{"lat":18.7000955,"lng":98.86173269999999}},"types":null},"types":["locality","political"]},{"address_components":[{"long_name":"50000","short_name":"50000","types":["postal_code"]},{"long_name":"Chiang Mai","short_name":"จ.เชียงใหม่","types":["administrative_area_level_1","political"]},{"long_name":"Thailand","short_name":"TH","types":["country","political"]}],"formatted_address":"Chiang Mai 50000, Thailand","place_id":"ChIJAea6Dlol2jARwLn6KMlGAxw","geometry":{"bounds":{"northeast":{"lat":18.8221789,"lng":99.048656},"southwest":{"lat":18.748366,"lng":98.9935441}},"types":null},"types":["postal_code"]},{"address_components":[{"long_name":"Mueang Chiang Mai District","short_name":"Mueang Chiang Mai District","types":["administrative_area_level_2","political"]},{"long_name":"Chiang Mai","short_name":"จ.เชียงใหม่","types":["administrative_area_level_1","political"]},{"long_name":"Thailand","short_name":"TH","types":["country","political"]}],"formatted_address":"Mueang Chiang Mai District, Chiang Mai, Thailand","place_id":"ChIJzzapQXc62jAR8G2K-sVGAwM","geometry":{"bounds":{"northeast":{"lat":18.8782902,"lng":99.0512218},"southwest":{"lat":18.6957507,"lng":98.86173269999999}},"types":null},"types":["administrative_area_level_2","political"]},{"address_components":[{"long_name":"Chiang Mai","short_name":"จ.เชียงใหม่","types":["administrative_area_level_1","political"]},{"long_name":"Thailand","short_name":"TH","types":["country","political"]}],"formatted_address":"Chiang Mai, Thailand","place_id":"ChIJQXiZwsjM0DAR1AMlknbhaWo","geometry":{"bounds":{"northeast":{"lat":20.1475012,"lng":99.5715955},"southwest":{"lat":17.2424831,"lng":98.0079447}},"types":null},"types":["administrative_area_level_1","political"]},{"address_components":[{"long_name":"Thailand","short_name":"TH","types":["country","political"]}],"formatted_address":"Thailand","place_id":"ChIJsU1CR_eNTTARAuhXB4gs154","geometry":{"bounds":{"northeast":{"lat":20.465143,"lng":105.636812},"southwest":{"lat":5.613038,"lng":97.343396}},"types":null},"types":["country","political"]}],"City":null,"IsValid":false}