{"results":[{"address_components":[{"long_name":"50","short_name":"50","types":["street_number"]},{"long_name":"Guang Hua Lu","short_name":"Guang Hua Lu","types":["route"]},{"long_name":"JianWai DaJie","short_name":"JianWai DaJie","types":["neighborhood","political"]},{"long_name":"Chaoyang Qu","short_name":"Chaoyang Qu","types":["political","sublocality","sublocality_level_1"]},{"long_name":"Beijing","short_name":"Beijing","types":["locality","political"]},{"long_name":"Beijing Shi","short_name":"Beijing Shi","types":["administrative_area_level_1","political"]},{"long_name":"China","short_name":"CN","types":["country","political"]},{"long_name":"100020","short_name":"100020","types":["postal_code"]}],"formatted_address":"50 Guang Hua Lu, JianWai DaJie, Chaoyang Qu, Beijing Shi, China, 100020","place_id":"ChIJb1yCaCSt8TURb1fJt9W5wsY","geometry":{"bounds":{"northeast":{"lat":0.0,"lng":0.0},"southwest":{"lat":0.0,"lng":0.0}},"types":null},"types":["street_address"]},{"address_components":[{"long_name":"Chaoyangmen","short_name":"Chaoyangmen","types":["neighborhood","political"]},{"long_name":"Dongcheng","short_name":"Dongcheng","types":["political","sublocality","sublocality_level_1"]},{"long_name":"Beijing","short_name":"Beijing","types":["locality","political"]},{"long_name":"Beijing","short_name":"Beijing","types":["administrative_area_level_1","political"]},{"long_name":"China","short_name":"CN","types":["country","political"]}],"formatted_address":"Chaoyangmen, Dongcheng, Beijing, China","place_id":"ChIJe4v9N9es8TURwasTud2qxts","geometry":{"bounds":{"northeast":{"lat":39.9251524,"lng":116.4368926},"southwest":{"lat":39.9079867,"lng":116.4258821}},"types":null},"types":["neighborhood","political"]},{"address_components":[{"long_name":"Jianwai Street","short_name":"Jianwai Street","types":["neighborhood","political"]},{"long_name":"Beijing","short_name":"Beijing","types":["administrative_area_level_1","political"]},{"long_name":"China","short_name":"CN","types":["country","political"]}],"formatted_address":"Jianwai Street, China","place_id":"ChIJk8dclQSt8TURyqn8ggJC1KM","geometry":{"bounds":{"northeast":{"lat":39.914286,"lng":116.4785017},"southwest":{"lat":39.9030559,"lng":116.4341265}},"types":null},"types":["neighborhood","political"]},{"address_components":[{"long_name":"Chaoyang","short_name":"Chaoyang","types":["political","sublocality","sublocality_level_1"]},{"long_name":"Beijing","short_name":"Beijing","types":["locality","political"]},{"long_name":"Beijing","short_name":"Beijing","types":["administrative_area_level_1","political"]},{"long_name":"China","short_name":"CN","types":["country","political"]}],"formatted_address":"Chaoyang, Beijing, China","place_id":"ChIJR2lzI-6r8TUROoHQJjCLu9c","geometry":{"bounds":{"northeast":{"lat":40.107933,"lng":116.6452732},"southwest":{"lat":39.8097688,"lng":116.3508829}},"types":null},"types":["political","sublocality","sublocality_level_1"]},{"address_components":[{"long_name":"Beijing","short_name":"Beijing","types":["locality","political"]},{"long_name":"Beijing","short_name":"Beijing","types":["administrative_area_level_1","political"]},{"long_name":"China","short_name":"CN","types":["country","political"]}],"formatted_address":"Beijing, China","place_id":"ChIJuSwU55ZS8DURiqkPryBWYrk","geometry":{"bounds":{"northeast":{"lat":41.0608159,"lng":117.514625},"southwest":{"lat":39.4427581,"lng":115.4234116}},"types":null},"types":["locality","political"]},{"address_components":[{"long_name":"100005","short_name":"100005","types":["postal_code"]},{"long_name":"Dongcheng","short_name":"Dongcheng","types":["political","sublocality","sublocality_level_1"]},{"long_name":"Beijing","short_name":"Beijing","types":["locality","political"]},{"long_name":"Beijing","short_name":"Beijing","types":["administrative_area_level_1","political"]},{"long_name":"China","short_name":"CN","types":["country","political"]}],"formatted_address":"Dongcheng, Beijing, China, 100005","place_id":"ChIJyZhq9jKt8TURF5nqatbkB_o","geometry":{"bounds":{"northeast":{"lat":39.9336098,"lng":116.4872483},"southwest":{"lat":39.8891153,"lng":116.3736467}},"types":null},"types":["postal_code"]},{"address_components":[{"long_name":"100020","short_name":"100020","types":["postal_code"]},{"long_name":"Chaoyang","short_name":"Chaoyang","types":["political","sublocality","sublocality_level_1"]},{"long_name":"Beijing","short_name":"Beijing","types":["locality","political"]},{"long_name":"Beijing","short_name":"Beijing","types":["administrative_area_level_1","political"]},{"long_name":"China","short_name":"CN","types":["country","political"]}],"formatted_address":"Chaoyang, Beijing, China, 100020","place_id":"ChIJmdlpax2t8TURccmE-O7qFjo","geometry":{"bounds":{"northeast":{"lat":39.9514639,"lng":116.5123217},"southwest":{"lat":39.8982469,"lng":116.4252907}},"types":null},"types":["postal_code"]},{"address_components":[{"long_name":"100600","short_name":"100600","types":["postal_code"]},{"long_name":"Chaoyang","short_name":"Chaoyang","types":["political","sublocality","sublocality_level_1"]},{"long_name":"Beijing","short_name":"Beijing","types":["locality","political"]},{"long_name":"Beijing","short_name":"Beijing","types":["administrative_area_level_1","political"]},{"long_name":"China","short_name":"CN","types":["country","political"]}],"formatted_address":"Chaoyang, Beijing, China, 100600","place_id":"ChIJR0fDjpas8TURSRyNZmAJL9E","geometry":{"bounds":{"northeast":{"lat":39.9561611,"lng":116.4665976},"southwest":{"lat":39.898697700000007,"lng":116.4193889}},"types":null},"types":["postal_code"]},{"address_components":[{"long_name":"Beijing","short_name":"Beijing","types":["administrative_area_level_1","political"]},{"long_name":"China","short_name":"CN","types":["country","political"]}],"formatted_address":"Beijing, China","place_id":"ChIJuSwU55ZS8DURp8_dOLuVd8A","geometry":{"bounds":{"northeast":{"lat":41.0608159,"lng":117.514625},"southwest":{"lat":39.4427581,"lng":115.4234116}},"types":null},"types":["administrative_area_level_1","political"]},{"address_components":[{"long_name":"China","short_name":"CN","types":["country","political"]}],"formatted_address":"China","place_id":"ChIJwULG5WSOUDERbzafNHyqHZU","geometry":{"bounds":{"northeast":{"lat":53.560973999999987,"lng":134.7728099},"southwest":{"lat":17.9996,"lng":73.4994136}},"types":null},"types":["country","political"]}],"City":null,"IsValid":false}