{"results":[{"address_components":[{"long_name":"3","short_name":"3","types":["street_number"]},{"long_name":"Congress Street","short_name":"Congress St","types":["route"]},{"long_name":"Boston","short_name":"Boston","types":["locality","political"]},{"long_name":"Suffolk County","short_name":"Suffolk County","types":["administrative_area_level_2","political"]},{"long_name":"Massachusetts","short_name":"MA","types":["administrative_area_level_1","political"]},{"long_name":"United States","short_name":"US","types":["country","political"]},{"long_name":"02210","short_name":"02210","types":["postal_code"]}],"formatted_address":"3 Congress St, Boston, MA 02210, USA","place_id":"ChIJAVPEFoBw44kR-4yMZ4TPVZg","geometry":{"bounds":{"northeast":{"lat":0.0,"lng":0.0},"southwest":{"lat":0.0,"lng":0.0}},"types":null},"types":["street_address"]},{"address_components":[{"long_name":"Congress St @ Sleeper St","short_name":"Congress St @ Sleeper St","types":["bus_station","establishment","point_of_interest","transit_station"]},{"long_name":"D Street / West Broadway","short_name":"D Street / West Broadway","types":["neighborhood","political"]},{"long_name":"Boston","short_name":"Boston","types":["locality","political"]},{"long_name":"Suffolk County","short_name":"Suffolk County","types":["administrative_area_level_2","political"]},{"long_name":"Massachusetts","short_name":"MA","types":["administrative_area_level_1","political"]},{"long_name":"United States","short_name":"US","types":["country","political"]},{"long_name":"02210","short_name":"02210","types":["postal_code"]}],"formatted_address":"Congress St @ Sleeper St, Boston, MA 02210, USA","place_id":"ChIJ3Si3BYBw44kRKVTbzPE24Ow","geometry":{"bounds":{"northeast":{"lat":0.0,"lng":0.0},"southwest":{"lat":0.0,"lng":0.0}},"types":null},"types":["bus_station","establishment","point_of_interest","transit_station"]},{"address_components":[{"long_name":"D Street / West Broadway","short_name":"D Street / West Broadway","types":["neighborhood","political"]},{"long_name":"Boston","short_name":"Boston","types":["locality","political"]},{"long_name":"Suffolk County","short_name":"Suffolk County","types":["administrative_area_level_2","political"]},{"long_name":"Massachusetts","short_name":"MA","types":["administrative_area_level_1","political"]},{"long_name":"United States","short_name":"US","types":["country","political"]}],"formatted_address":"D Street / West Broadway, Boston, MA, USA","place_id":"ChIJz04k64R644kRCJUW6zghhzE","geometry":{"bounds":{"northeast":{"lat":42.355097,"lng":-71.0095929},"southwest":{"lat":42.3319999,"lng":-71.0582952}},"types":null},"types":["neighborhood","political"]},{"address_components":[{"long_name":"Boston","short_name":"Boston","types":["locality","political"]},{"long_name":"Suffolk County","short_name":"Suffolk County","types":["administrative_area_level_2","political"]},{"long_name":"Massachusetts","short_name":"MA","types":["administrative_area_level_1","political"]},{"long_name":"United States","short_name":"US","types":["country","political"]}],"formatted_address":"Boston, MA, USA","place_id":"ChIJGzE9DS1l44kRoOhiASS_fHg","geometry":{"bounds":{"northeast":{"lat":42.400819899999988,"lng":-70.749455},"southwest":{"lat":42.22788,"lng":-71.191113}},"types":null},"types":["locality","political"]},{"address_components":[{"long_name":"02210","short_name":"02210","types":["postal_code"]},{"long_name":"Boston","short_name":"Boston","types":["locality","political"]},{"long_name":"Suffolk County","short_name":"Suffolk County","types":["administrative_area_level_2","political"]},{"long_name":"Massachusetts","short_name":"MA","types":["administrative_area_level_1","political"]},{"long_name":"United States","short_name":"US","types":["country","political"]}],"formatted_address":"Boston, MA 02210, USA","place_id":"ChIJxZG7U4J644kRNEXGMfKBE4A","geometry":{"bounds":{"northeast":{"lat":42.359733,"lng":-71.009244799999991},"southwest":{"lat":42.3100359,"lng":-71.101703}},"types":null},"types":["postal_code"]},{"address_components":[{"long_name":"Suffolk County","short_name":"Suffolk County","types":["administrative_area_level_2","political"]},{"long_name":"Massachusetts","short_name":"MA","types":["administrative_area_level_1","political"]},{"long_name":"United States","short_name":"US","types":["country","political"]}],"formatted_address":"Suffolk County, MA, USA","place_id":"ChIJ6TarW9Sc44kR4nUWuotzEyI","geometry":{"bounds":{"northeast":{"lat":42.4500959,"lng":-70.648072},"southwest":{"lat":42.22788,"lng":-71.191113}},"types":null},"types":["administrative_area_level_2","political"]},{"address_components":[{"long_name":"Boston-Cambridge-Quincy, MA-NH","short_name":"Boston-Cambridge-Quincy, MA-NH","types":["political"]},{"long_name":"United States","short_name":"US","types":["country","political"]}],"formatted_address":"Boston-Cambridge-Quincy, MA-NH, USA","place_id":"ChIJA9NWegR244kRF6B2phYlXis","geometry":{"bounds":{"northeast":{"lat":43.082038,"lng":-70.5255671},"southwest":{"lat":41.7628401,"lng":-71.947663}},"types":null},"types":["political"]},{"address_components":[{"long_name":"Boston-Cambridge-Quincy, MA-NH","short_name":"Boston-Cambridge-Quincy, MA-NH","types":["political"]},{"long_name":"United States","short_name":"US","types":["country","political"]}],"formatted_address":"Boston-Cambridge-Quincy, MA-NH, USA","place_id":"ChIJZ11RHIcL44kRFgTm6pE69b8","geometry":{"bounds":{"northeast":{"lat":43.573012,"lng":-70.5255671},"southwest":{"lat":41.6245321,"lng":-71.8987166}},"types":null},"types":["political"]},{"address_components":[{"long_name":"Boston Metropolitan Area","short_name":"Boston Metropolitan Area","types":["political"]},{"long_name":"United States","short_name":"US","types":["country","political"]}],"formatted_address":"Boston Metropolitan Area, USA","place_id":"ChIJQ-TFt5IL44kR1kcVhdMVrXg","geometry":{"bounds":{"northeast":{"lat":43.573012,"lng":-70.3225219},"southwest":{"lat":41.5658509,"lng":-71.8987159}},"types":null},"types":["political"]},{"address_components":[{"long_name":"Massachusetts","short_name":"MA","types":["administrative_area_level_1","establishment","point_of_interest","political"]},{"long_name":"United States","short_name":"US","types":["country","political"]}],"formatted_address":"Massachusetts, USA","place_id":"ChIJ_b9z6W1l44kRHA2DVTbQxkU","geometry":{"bounds":{"northeast":{"lat":42.88679,"lng":-69.85886099999999},"southwest":{"lat":41.187053000000013,"lng":-73.5081419}},"types":null},"types":["administrative_area_level_1","establishment","point_of_interest","political"]},{"address_components":[{"long_name":"United States","short_name":"US","types":["country","political"]}],"formatted_address":"United States","place_id":"ChIJCzYy5IS16lQRQrfeQ5K5Oxw","geometry":{"bounds":{"northeast":{"lat":71.5388001,"lng":-66.885417},"southwest":{"lat":18.7763,"lng":170.5957}},"types":null},"types":["country","political"]}],"City":null,"IsValid":false}