{"results":[{"address_components":[{"long_name":"Unnamed Road","short_name":"Unnamed Road","types":["route"]},{"long_name":"Tambon Kuet Chang","short_name":"Tambon Kuet Chang","types":["locality","political"]},{"long_name":"Amphoe Mae Taeng","short_name":"Amphoe Mae Taeng","types":["administrative_area_level_2","political"]},{"long_name":"Chang Wat Chiang Mai","short_name":"จ.เชียงใหม่","types":["administrative_area_level_1","political"]},{"long_name":"Thailand","short_name":"TH","types":["country","political"]},{"long_name":"50150","short_name":"50150","types":["postal_code"]}],"formatted_address":"Unnamed Road, Tambon Kuet Chang, Amphoe Mae Taeng, Chang Wat Chiang Mai 50150, Thailand","place_id":"ChIJKecm1R8N2jARQALJT1Ht394","geometry":{"bounds":{"northeast":{"lat":19.2127108,"lng":98.8660142},"southwest":{"lat":19.2092305,"lng":98.856045}},"types":null},"types":["route"]},{"address_components":[{"long_name":"Kuet Chang","short_name":"Kuet Chang","types":["locality","political"]},{"long_name":"Mae Taeng District","short_name":"Mae Taeng District","types":["administrative_area_level_2","political"]},{"long_name":"Chiang Mai","short_name":"จ.เชียงใหม่","types":["administrative_area_level_1","political"]},{"long_name":"Thailand","short_name":"TH","types":["country","political"]},{"long_name":"50150","short_name":"50150","types":["postal_code"]}],"formatted_address":"Kuet Chang, Mae Taeng District, Chiang Mai 50150, Thailand","place_id":"ChIJYy_IzQB02jAR4I2L-sVGAwQ","geometry":{"bounds":{"northeast":{"lat":19.3541914,"lng":98.917823700000014},"southwest":{"lat":19.1769808,"lng":98.5888817}},"types":null},"types":["locality","political"]},{"address_components":[{"long_name":"50150","short_name":"50150","types":["postal_code"]},{"long_name":"Mae Taeng District","short_name":"Mae Taeng District","types":["administrative_area_level_2","political"]},{"long_name":"Chiang Mai","short_name":"จ.เชียงใหม่","types":["administrative_area_level_1","political"]},{"long_name":"Thailand","short_name":"TH","types":["country","political"]}],"formatted_address":"Mae Taeng District, Chiang Mai 50150, Thailand","place_id":"ChIJTSFL_xQN2jAR8Mv6KMlGAxw","geometry":{"bounds":{"northeast":{"lat":19.353464,"lng":99.154843},"southwest":{"lat":19.020145,"lng":98.56804489999999}},"types":null},"types":["postal_code"]},{"address_components":[{"long_name":"Mae Taeng District","short_name":"Mae Taeng District","types":["administrative_area_level_2","political"]},{"long_name":"Chiang Mai","short_name":"จ.เชียงใหม่","types":["administrative_area_level_1","political"]},{"long_name":"Thailand","short_name":"TH","types":["country","political"]}],"formatted_address":"Mae Taeng District, Chiang Mai, Thailand","place_id":"ChIJAR6q_BQN2jARQG6K-sVGAwM","geometry":{"bounds":{"northeast":{"lat":19.3541914,"lng":99.1549326},"southwest":{"lat":19.0253721,"lng":98.5679251}},"types":null},"types":["administrative_area_level_2","political"]},{"address_components":[{"long_name":"Chiang Mai","short_name":"จ.เชียงใหม่","types":["administrative_area_level_1","political"]},{"long_name":"Thailand","short_name":"TH","types":["country","political"]}],"formatted_address":"Chiang Mai, Thailand","place_id":"ChIJQXiZwsjM0DAR1AMlknbhaWo","geometry":{"bounds":{"northeast":{"lat":20.1475012,"lng":99.5715955},"southwest":{"lat":17.2424831,"lng":98.0079447}},"types":null},"types":["administrative_area_level_1","political"]},{"address_components":[{"long_name":"Thailand","short_name":"TH","types":["country","political"]}],"formatted_address":"Thailand","place_id":"ChIJsU1CR_eNTTARAuhXB4gs154","geometry":{"bounds":{"northeast":{"lat":20.465143,"lng":105.636812},"southwest":{"lat":5.613038,"lng":97.343396}},"types":null},"types":["country","political"]}],"City":null,"IsValid":false}