{"results":[{"address_components":[{"long_name":"107","short_name":"107","types":["route"]},{"long_name":"Tambon Chiang Dao","short_name":"Tambon Chiang Dao","types":["locality","political"]},{"long_name":"Amphoe Chiang Dao","short_name":"Amphoe Chiang Dao","types":["administrative_area_level_2","political"]},{"long_name":"Chang Wat Chiang Mai","short_name":"จ.เชียงใหม่","types":["administrative_area_level_1","political"]},{"long_name":"Thailand","short_name":"TH","types":["country","political"]},{"long_name":"50170","short_name":"50170","types":["postal_code"]}],"formatted_address":"107, Tambon Chiang Dao, Amphoe Chiang Dao, Chang Wat Chiang Mai 50170, Thailand","place_id":"ChIJLRp8B_2m0DARf0y8qghjpbo","geometry":{"bounds":{"northeast":{"lat":19.3992039,"lng":98.9617955},"southwest":{"lat":19.3953966,"lng":98.958988699999992}},"types":null},"types":["route"]},{"address_components":[{"long_name":"Chiang Dao","short_name":"Chiang Dao","types":["locality","political"]},{"long_name":"Chiang Dao District","short_name":"Chiang Dao District","types":["administrative_area_level_2","political"]},{"long_name":"Chiang Mai","short_name":"จ.เชียงใหม่","types":["administrative_area_level_1","political"]},{"long_name":"Thailand","short_name":"TH","types":["country","political"]},{"long_name":"50170","short_name":"50170","types":["postal_code"]}],"formatted_address":"Chiang Dao, Chiang Dao District, Chiang Mai 50170, Thailand","place_id":"ChIJ_UdMtg2n0DAR4IuL-sVGAwQ","geometry":{"bounds":{"northeast":{"lat":19.4445686,"lng":99.105781},"southwest":{"lat":19.3067073,"lng":98.8140514}},"types":null},"types":["locality","political"]},{"address_components":[{"long_name":"Chiang Dao District","short_name":"Chiang Dao District","types":["administrative_area_level_2","political"]},{"long_name":"Chiang Mai","short_name":"จ.เชียงใหม่","types":["administrative_area_level_1","political"]},{"long_name":"Thailand","short_name":"TH","types":["country","political"]},{"long_name":"50170","short_name":"50170","types":["postal_code"]}],"formatted_address":"Chiang Dao District, Chiang Mai 50170, Thailand","place_id":"ChIJtdQ68M2i0DARIG6K-sVGAwM","geometry":{"bounds":{"northeast":{"lat":19.8134922,"lng":99.1646822},"southwest":{"lat":19.2582898,"lng":98.5727469}},"types":null},"types":["administrative_area_level_2","political"]},{"address_components":[{"long_name":"50170","short_name":"50170","types":["postal_code"]},{"long_name":"Chiang Mai","short_name":"จ.เชียงใหม่","types":["administrative_area_level_1","political"]},{"long_name":"Thailand","short_name":"TH","types":["country","political"]}],"formatted_address":"Chiang Mai 50170, Thailand","place_id":"ChIJtdQ68M2i0DARcNv6KMlGAxw","geometry":{"bounds":{"northeast":{"lat":19.814402,"lng":99.158190900000008},"southwest":{"lat":19.2581239,"lng":98.5734318}},"types":null},"types":["postal_code"]},{"address_components":[{"long_name":"Chiang Mai","short_name":"จ.เชียงใหม่","types":["administrative_area_level_1","political"]},{"long_name":"Thailand","short_name":"TH","types":["country","political"]}],"formatted_address":"Chiang Mai, Thailand","place_id":"ChIJQXiZwsjM0DAR1AMlknbhaWo","geometry":{"bounds":{"northeast":{"lat":20.1475012,"lng":99.5715955},"southwest":{"lat":17.2424831,"lng":98.0079447}},"types":null},"types":["administrative_area_level_1","political"]},{"address_components":[{"long_name":"Thailand","short_name":"TH","types":["country","political"]}],"formatted_address":"Thailand","place_id":"ChIJsU1CR_eNTTARAuhXB4gs154","geometry":{"bounds":{"northeast":{"lat":20.465143,"lng":105.636812},"southwest":{"lat":5.613038,"lng":97.343396}},"types":null},"types":["country","political"]}],"City":null,"IsValid":false}