{"results":[{"address_components":[{"long_name":"Zhao Shang Yin Hang （ Ha Er Bin Fen Hang ）","short_name":"Zhao Shang Yin Hang （ Ha Er Bin Fen Hang ）","types":["premise"]},{"long_name":"ZhongYang DaJie","short_name":"ZhongYang DaJie","types":["neighborhood","political"]},{"long_name":"Daoli Qu","short_name":"Daoli Qu","types":["political","sublocality","sublocality_level_1"]},{"long_name":"Haerbin Shi","short_name":"Haerbin Shi","types":["locality","political"]},{"long_name":"Heilongjiang Sheng","short_name":"Heilongjiang Sheng","types":["administrative_area_level_1","political"]},{"long_name":"China","short_name":"CN","types":["country","political"]},{"long_name":"150001","short_name":"150001","types":["postal_code"]}],"formatted_address":"Zhao Shang Yin Hang （ Ha Er Bin Fen Hang ）, ZhongYang DaJie, Daoli Qu, Haerbin Shi, Heilongjiang Sheng, China, 150001","place_id":"ChIJT5nKr22AQ14RnoLtF8onILw","geometry":{"bounds":{"northeast":{"lat":45.7683161,"lng":126.6207593},"southwest":{"lat":45.7679331,"lng":126.6205138}},"types":null},"types":["premise"]},{"address_components":[{"long_name":"3","short_name":"3","types":["street_number"]},{"long_name":"Zhong Yang Da Jie","short_name":"Zhong Yang Da Jie","types":["route"]},{"long_name":"ZhongYang DaJie","short_name":"ZhongYang DaJie","types":["neighborhood","political"]},{"long_name":"Daoli Qu","short_name":"Daoli Qu","types":["political","sublocality","sublocality_level_1"]},{"long_name":"Haerbin Shi","short_name":"Haerbin Shi","types":["locality","political"]},{"long_name":"Heilongjiang Sheng","short_name":"Heilongjiang Sheng","types":["administrative_area_level_1","political"]},{"long_name":"China","short_name":"CN","types":["country","political"]},{"long_name":"150010","short_name":"150010","types":["postal_code"]}],"formatted_address":"3 Zhong Yang Da Jie, ZhongYang DaJie, Daoli Qu, Haerbin Shi, Heilongjiang Sheng, China, 150010","place_id":"ChIJw2FzsG2AQ14RbnWOgWf5uNg","geometry":{"bounds":{"northeast":{"lat":0.0,"lng":0.0},"southwest":{"lat":0.0,"lng":0.0}},"types":null},"types":["street_address"]},{"address_components":[{"long_name":"Zhongyang Street","short_name":"Zhongyang Street","types":["neighborhood","political"]},{"long_name":"Daoli","short_name":"Daoli","types":["political","sublocality","sublocality_level_1"]},{"long_name":"Harbin","short_name":"Harbin","types":["locality","political"]},{"long_name":"Heilongjiang","short_name":"Heilongjiang","types":["administrative_area_level_1","political"]},{"long_name":"China","short_name":"CN","types":["country","political"]},{"long_name":"150000","short_name":"150000","types":["postal_code"]}],"formatted_address":"Zhongyang Street, Daoli, Harbin, Heilongjiang, China, 150000","place_id":"ChIJoQPzHBWAQ14R8HEk6sbVkUo","geometry":{"bounds":{"northeast":{"lat":45.781636,"lng":126.62461},"southwest":{"lat":45.766746100000013,"lng":126.6121677}},"types":null},"types":["neighborhood","political"]},{"address_components":[{"long_name":"Daoli","short_name":"Daoli","types":["political","sublocality","sublocality_level_1"]},{"long_name":"Harbin","short_name":"Harbin","types":["locality","political"]},{"long_name":"Heilongjiang","short_name":"Heilongjiang","types":["administrative_area_level_1","political"]},{"long_name":"China","short_name":"CN","types":["country","political"]}],"formatted_address":"Daoli, Harbin, Heilongjiang, China","place_id":"ChIJeSgOvuWIQ14RhsdADGVMZ_c","geometry":{"bounds":{"northeast":{"lat":45.7890534,"lng":126.635139},"southwest":{"lat":45.549539499999987,"lng":126.1501859}},"types":null},"types":["political","sublocality","sublocality_level_1"]},{"address_components":[{"long_name":"Harbin","short_name":"Harbin","types":["locality","political"]},{"long_name":"Heilongjiang","short_name":"Heilongjiang","types":["administrative_area_level_1","political"]},{"long_name":"China","short_name":"CN","types":["country","political"]}],"formatted_address":"Harbin, Heilongjiang, China","place_id":"ChIJYRRkpvhkQ14R1SygWnOSfF4","geometry":{"bounds":{"northeast":{"lat":46.6743866,"lng":130.24084},"southwest":{"lat":44.0622367,"lng":125.6878944}},"types":null},"types":["locality","political"]},{"address_components":[{"long_name":"150010","short_name":"150010","types":["postal_code"]},{"long_name":"Daoli","short_name":"Daoli","types":["political","sublocality","sublocality_level_1"]},{"long_name":"Harbin","short_name":"Harbin","types":["locality","political"]},{"long_name":"Heilongjiang","short_name":"Heilongjiang","types":["administrative_area_level_1","political"]},{"long_name":"China","short_name":"CN","types":["country","political"]}],"formatted_address":"Daoli, Harbin, Heilongjiang, China, 150010","place_id":"ChIJXdlDzG6AQ14R3eAtEg2WW0Y","geometry":{"bounds":{"northeast":{"lat":45.7834324,"lng":126.6400358},"southwest":{"lat":45.7074989,"lng":126.5497166}},"types":null},"types":["postal_code"]},{"address_components":[{"long_name":"150001","short_name":"150001","types":["postal_code"]},{"long_name":"Nangang","short_name":"Nangang","types":["political","sublocality","sublocality_level_1"]},{"long_name":"Harbin","short_name":"Harbin","types":["locality","political"]},{"long_name":"Heilongjiang","short_name":"Heilongjiang","types":["administrative_area_level_1","political"]},{"long_name":"China","short_name":"CN","types":["country","political"]}],"formatted_address":"Nangang, Harbin, Heilongjiang, China, 150001","place_id":"ChIJ-8dNBYx_RF4RwVsIY_ZSFbw","geometry":{"bounds":{"northeast":{"lat":45.783361199999987,"lng":126.710949},"southwest":{"lat":45.6690855,"lng":126.5499397}},"types":null},"types":["postal_code"]},{"address_components":[{"long_name":"150000","short_name":"150000","types":["postal_code"]},{"long_name":"Songbei","short_name":"Songbei","types":["political","sublocality","sublocality_level_1"]},{"long_name":"Harbin","short_name":"Harbin","types":["locality","political"]},{"long_name":"Heilongjiang","short_name":"Heilongjiang","types":["administrative_area_level_1","political"]},{"long_name":"China","short_name":"CN","types":["country","political"]}],"formatted_address":"Songbei, Harbin, Heilongjiang, China, 150000","place_id":"ChIJHYOjiR-CQ14RfD-MGLbUxhI","geometry":{"bounds":{"northeast":{"lat":45.8171034,"lng":126.6600415},"southwest":{"lat":45.7083774,"lng":126.4746491}},"types":null},"types":["postal_code"]},{"address_components":[{"long_name":"Heilongjiang","short_name":"Heilongjiang","types":["administrative_area_level_1","political"]},{"long_name":"China","short_name":"CN","types":["country","political"]}],"formatted_address":"Heilongjiang, China","place_id":"ChIJf5YvzrYfW14RAK9gg8wDQ_0","geometry":{"bounds":{"northeast":{"lat":53.5636239,"lng":135.0956698},"southwest":{"lat":43.4257985,"lng":121.1817531}},"types":null},"types":["administrative_area_level_1","political"]},{"address_components":[{"long_name":"China","short_name":"CN","types":["country","political"]}],"formatted_address":"China","place_id":"ChIJwULG5WSOUDERbzafNHyqHZU","geometry":{"bounds":{"northeast":{"lat":53.560973999999987,"lng":134.7728099},"southwest":{"lat":17.9996,"lng":73.4994136}},"types":null},"types":["country","political"]}],"City":null,"IsValid":false}