{"results":[{"address_components":[{"long_name":"Sighisoara","short_name":"Sighisoara","types":["administrative_area_level_2","political"]},{"long_name":"Mureș County","short_name":"MS","types":["administrative_area_level_1","political"]},{"long_name":"Romania","short_name":"RO","types":["country","political"]}],"formatted_address":"Sighisoara, Romania","place_id":"ChIJH-SbcpN1S0cRnuqF9bXVB94","geometry":{"bounds":{"northeast":{"lat":46.3002219,"lng":24.8418599},"southwest":{"lat":46.15785,"lng":24.70879}},"types":null},"types":["administrative_area_level_2","political"]},{"address_components":[{"long_name":"Mureș County","short_name":"MS","types":["administrative_area_level_1","political"]},{"long_name":"Romania","short_name":"RO","types":["country","political"]}],"formatted_address":"Mureș County, Romania","place_id":"ChIJd5E-VUq2S0cR0LbfbkS1jms","geometry":{"bounds":{"northeast":{"lat":47.143799,"lng":25.3139161},"southwest":{"lat":46.075015,"lng":23.9577359}},"types":null},"types":["administrative_area_level_1","political"]},{"address_components":[{"long_name":"Romania","short_name":"RO","types":["country","political"]}],"formatted_address":"Romania","place_id":"ChIJw3aJlSb_sUARlLEEqJJP74Q","geometry":{"bounds":{"northeast":{"lat":48.265274,"lng":29.778399999999991},"southwest":{"lat":43.6186193,"lng":20.2617593}},"types":null},"types":["country","political"]}],"City":null,"IsValid":false}