{"Eiw2LTEwIFJvY2t3b29kIFRlcnJhY2UsIEJvc3RvbiwgTUEgMDIxMzAsIFVTQQ":{"PlaceId":"Eiw2LTEwIFJvY2t3b29kIFRlcnJhY2UsIEJvc3RvbiwgTUEgMDIxMzAsIFVTQQ","Bounds":{"northeast":{"lat":42.313163499999987,"lng":-71.1267101},"southwest":{"lat":42.3126888,"lng":-71.1278741}},"LocationType":3,"Location":{"lat":42.3131507,"lng":-71.1270856},"Components":[{"LongName":"6-10","ShortName":"6-10","Types":[9]},{"LongName":"Rockwood Terrace","ShortName":"Rockwood Terrace","Types":[8]},{"LongName":"Jamaica Hills / Pond","ShortName":"Jamaica Hills / Pond","Types":[7,0]},{"LongName":"Boston","ShortName":"Boston","Types":[4,0]},{"LongName":"Suffolk County","ShortName":"Suffolk County","Types":[3,0]},{"LongName":"Massachusetts","ShortName":"MA","Types":[2,0]},{"LongName":"United States","ShortName":"US","Types":[1,0]},{"LongName":"02130","ShortName":"02130","Types":[10]},{"LongName":"2426","ShortName":"2426","Types":[11]}],"FormattedAddress":"6-10 Rockwood Terrace, Boston, MA 02130, USA","Parent":{"PlaceId":"ChIJP7vPghR544kRG1KefrQPOxY","Bounds":{"northeast":{"lat":42.331997,"lng":-71.110053},"southwest":{"lat":42.295697900000008,"lng":-71.1400973}},"LocationType":0,"Location":{"lat":42.3088756,"lng":-71.1240559},"Components":[{"LongName":"Jamaica Hills / Pond","ShortName":"Jamaica Hills / Pond","Types":[7,0]},{"LongName":"Dorchester Center","ShortName":"Dorchester Center","Types":[0,5,6]},{"LongName":"Boston","ShortName":"Boston","Types":[4,0]},{"LongName":"Suffolk County","ShortName":"Suffolk County","Types":[3,0]},{"LongName":"Massachusetts","ShortName":"MA","Types":[2,0]},{"LongName":"United States","ShortName":"US","Types":[1,0]}],"FormattedAddress":"Jamaica Hills / Pond, Boston, MA, USA","Parent":{"PlaceId":"ChIJ0RnkK3J544kREhgmsmdsEjM","Bounds":{"northeast":{"lat":42.331997,"lng":-71.0975505},"southwest":{"lat":42.295697900000008,"lng":-71.1400973}},"LocationType":0,"Location":{"lat":42.3097365,"lng":-71.1151431},"Components":[{"LongName":"Jamaica Plain","ShortName":"Jamaica Plain","Types":[7,0]},{"LongName":"Dorchester Center","ShortName":"Dorchester Center","Types":[0,5,6]},{"LongName":"Boston","ShortName":"Boston","Types":[4,0]},{"LongName":"Suffolk County","ShortName":"Suffolk County","Types":[3,0]},{"LongName":"Massachusetts","ShortName":"MA","Types":[2,0]},{"LongName":"United States","ShortName":"US","Types":[1,0]}],"FormattedAddress":"Jamaica Plain, Boston, MA, USA","Parent":{"PlaceId":"ChIJGzE9DS1l44kRoOhiASS_fHg","Bounds":{"northeast":{"lat":42.400819899999988,"lng":-70.749455},"southwest":{"lat":42.22788,"lng":-71.191113}},"LocationType":0,"Location":{"lat":42.3600825,"lng":-71.0588801},"Components":[{"LongName":"Boston","ShortName":"Boston","Types":[4,0]},{"LongName":"Suffolk County","ShortName":"Suffolk County","Types":[3,0]},{"LongName":"Massachusetts","ShortName":"MA","Types":[2,0]},{"LongName":"United States","ShortName":"US","Types":[1,0]}],"FormattedAddress":"Boston, MA, USA","Parent":{"PlaceId":"ChIJU-wQg2l544kR0Aqrq285GNg","Bounds":{"northeast":{"lat":42.331939899999988,"lng":-71.0936799},"southwest":{"lat":42.287366899999988,"lng":-71.137148799999991}},"LocationType":0,"Location":{"lat":42.3097365,"lng":-71.1151431},"Components":[{"LongName":"02130","ShortName":"02130","Types":[10]},{"LongName":"Jamaica Plain","ShortName":"Jamaica Plain","Types":[7,0]},{"LongName":"Boston","ShortName":"Boston","Types":[4,0]},{"LongName":"Suffolk County","ShortName":"Suffolk County","Types":[3,0]},{"LongName":"Massachusetts","ShortName":"MA","Types":[2,0]},{"LongName":"United States","ShortName":"US","Types":[1,0]}],"FormattedAddress":"Jamaica Plain, MA 02130, USA","Parent":{"PlaceId":"ChIJ6TarW9Sc44kR4nUWuotzEyI","Bounds":{"northeast":{"lat":42.4500959,"lng":-70.648072},"southwest":{"lat":42.22788,"lng":-71.191113}},"LocationType":0,"Location":{"lat":42.3522866,"lng":-71.0504229},"Components":[{"LongName":"Suffolk County","ShortName":"Suffolk County","Types":[3,0]},{"LongName":"Massachusetts","ShortName":"MA","Types":[2,0]},{"LongName":"United States","ShortName":"US","Types":[1,0]}],"FormattedAddress":"Suffolk County, MA, USA","Parent":{"PlaceId":"ChIJA9NWegR244kRF6B2phYlXis","Bounds":{"northeast":{"lat":43.082038,"lng":-70.5255671},"southwest":{"lat":41.7628401,"lng":-71.947663}},"LocationType":0,"Location":{"lat":42.7104806,"lng":-71.3824374},"Components":[{"LongName":"Boston-Cambridge-Quincy, MA-NH","ShortName":"Boston-Cambridge-Quincy, MA-NH","Types":[0]},{"LongName":"United States","ShortName":"US","Types":[1,0]}],"FormattedAddress":"Boston-Cambridge-Quincy, MA-NH, USA","Parent":{"PlaceId":"ChIJZ11RHIcL44kRFgTm6pE69b8","Bounds":{"northeast":{"lat":43.573012,"lng":-70.5255671},"southwest":{"lat":41.6245321,"lng":-71.8987166}},"LocationType":0,"Location":{"lat":42.5865746,"lng":-71.097317},"Components":[{"LongName":"Boston-Cambridge-Quincy, MA-NH","ShortName":"Boston-Cambridge-Quincy, MA-NH","Types":[0]},{"LongName":"United States","ShortName":"US","Types":[1,0]}],"FormattedAddress":"Boston-Cambridge-Quincy, MA-NH, USA","Parent":{"PlaceId":"ChIJQ-TFt5IL44kR1kcVhdMVrXg","Bounds":{"northeast":{"lat":43.573012,"lng":-70.3225219},"southwest":{"lat":41.5658509,"lng":-71.8987159}},"LocationType":0,"Location":{"lat":42.3600709,"lng":-71.0588305},"Components":[{"LongName":"Boston Metropolitan Area","ShortName":"Boston Metropolitan Area","Types":[0]},{"LongName":"United States","ShortName":"US","Types":[1,0]}],"FormattedAddress":"Boston Metropolitan Area, USA","Parent":{"PlaceId":"ChIJ_b9z6W1l44kRHA2DVTbQxkU","Bounds":{"northeast":{"lat":42.88679,"lng":-69.85886099999999},"southwest":{"lat":41.187053000000013,"lng":-73.5081419}},"LocationType":0,"Location":{"lat":42.4072107,"lng":-71.3824374},"Components":[{"LongName":"Massachusetts","ShortName":"MA","Types":[2,0,0,0]},{"LongName":"United States","ShortName":"US","Types":[1,0]}],"FormattedAddress":"Massachusetts, USA","Parent":{"PlaceId":"ChIJCzYy5IS16lQRQrfeQ5K5Oxw","Bounds":{"northeast":{"lat":71.5388001,"lng":-66.885417},"southwest":{"lat":18.7763,"lng":170.5957}},"LocationType":0,"Location":{"lat":0.0,"lng":0.0},"Components":[{"LongName":"United States","ShortName":"US","Types":[1,0]}],"FormattedAddress":"United States","Parent":null}}}}}}}}}}},"ChIJX9fdJdTJvJUREXJhhmw1k1U":{"PlaceId":"ChIJX9fdJdTJvJUREXJhhmw1k1U","Bounds":{"northeast":{"lat":0.0,"lng":0.0},"southwest":{"lat":0.0,"lng":0.0}},"LocationType":2,"Location":{"lat":-34.6156875,"lng":-58.5033508},"Components":[{"LongName":"2291","ShortName":"2291","Types":[9]},{"LongName":"Pasaje Eduardo Wilde","ShortName":"Pje. Eduardo Wilde","Types":[8]},{"LongName":"Monte Castro","ShortName":"Monte Castro","Types":[0,5,6]},{"LongName":"Buenos Aires","ShortName":"CABA","Types":[4,0]},{"LongName":"Comuna 10","ShortName":"Comuna 10","Types":[3,0]},{"LongName":"Ciudad Autónoma de Buenos Aires","ShortName":"CABA","Types":[2,0]},{"LongName":"Argentina","ShortName":"AR","Types":[1,0]},{"LongName":"C1417","ShortName":"C1417","Types":[10]},{"LongName":"BAA","ShortName":"BAA","Types":[11]}],"FormattedAddress":"Pje. Eduardo Wilde 2291, C1417BAA CABA, Argentina","Parent":{"PlaceId":"ChIJVR1bbM3JvJURnEpyvRGKJZc","Bounds":{"northeast":{"lat":-34.6091257,"lng":-58.492628399999987},"southwest":{"lat":-34.6284503,"lng":-58.5216367}},"LocationType":0,"Location":{"lat":-34.620674,"lng":-58.505826199999987},"Components":[{"LongName":"Monte Castro","ShortName":"Monte Castro","Types":[0,5,6]},{"LongName":"Buenos Aires","ShortName":"CABA","Types":[4,0]},{"LongName":"Comuna 10","ShortName":"Comuna 10","Types":[3,0]},{"LongName":"Autonomous City of Buenos Aires","ShortName":"CABA","Types":[2,0]},{"LongName":"Argentina","ShortName":"AR","Types":[1,0]}],"FormattedAddress":"Monte Castro, Autonomous City of Buenos Aires, Argentina","Parent":{"PlaceId":"ChIJvQz5TjvKvJURh47oiC6Bs6A","Bounds":{"northeast":{"lat":-34.5265464,"lng":-58.335144700000008},"southwest":{"lat":-34.7051011,"lng":-58.5314522}},"LocationType":0,"Location":{"lat":-34.6036844,"lng":-58.3815591},"Components":[{"LongName":"Buenos Aires","ShortName":"CABA","Types":[4,0]},{"LongName":"Autonomous City of Buenos Aires","ShortName":"CABA","Types":[2,0]},{"LongName":"Argentina","ShortName":"AR","Types":[1,0]}],"FormattedAddress":"Buenos Aires, Autonomous City of Buenos Aires, Argentina","Parent":{"PlaceId":"ChIJif2PN8nJvJURdmM8-GjGdMs","Bounds":{"northeast":{"lat":-34.6091257,"lng":-58.4713029},"southwest":{"lat":-34.6458181,"lng":-58.5314522}},"LocationType":0,"Location":{"lat":-34.6273345,"lng":-58.5029706},"Components":[{"LongName":"Comuna 10","ShortName":"Comuna 10","Types":[3,0]},{"LongName":"Ciudad Autónoma de Buenos Aires","ShortName":"CABA","Types":[2,0]},{"LongName":"Argentina","ShortName":"AR","Types":[1,0]}],"FormattedAddress":"Comuna 10, Cdad. Autónoma de Buenos Aires, Argentina","Parent":{"PlaceId":"ChIJu39FBT3KvJURF8D35_z0YOE","Bounds":{"northeast":{"lat":-34.5265464,"lng":-58.335144700000008},"southwest":{"lat":-34.7055085,"lng":-58.5314522}},"LocationType":0,"Location":{"lat":-34.6037618,"lng":-58.381714999999993},"Components":[{"LongName":"Autonomous City of Buenos Aires","ShortName":"CABA","Types":[2,0]},{"LongName":"Argentina","ShortName":"AR","Types":[1,0]}],"FormattedAddress":"Autonomous City of Buenos Aires, Argentina","Parent":{"PlaceId":"ChIJZ8b99fXKvJURqA_wKpl3Lz0","Bounds":{"northeast":{"lat":-21.7810459,"lng":-53.637481},"southwest":{"lat":-55.1250224,"lng":-73.5603601}},"LocationType":0,"Location":{"lat":-38.416097,"lng":-63.616671999999987},"Components":[{"LongName":"Argentina","ShortName":"AR","Types":[1,0]}],"FormattedAddress":"Argentina","Parent":null}}}}}},"ChIJVR1bbM3JvJURnEpyvRGKJZc":{"PlaceId":"ChIJVR1bbM3JvJURnEpyvRGKJZc","Bounds":{"northeast":{"lat":-34.6091257,"lng":-58.492628399999987},"southwest":{"lat":-34.6284503,"lng":-58.5216367}},"LocationType":0,"Location":{"lat":-34.620674,"lng":-58.505826199999987},"Components":[{"LongName":"Monte Castro","ShortName":"Monte Castro","Types":[0,5,6]},{"LongName":"Buenos Aires","ShortName":"CABA","Types":[4,0]},{"LongName":"Comuna 10","ShortName":"Comuna 10","Types":[3,0]},{"LongName":"Autonomous City of Buenos Aires","ShortName":"CABA","Types":[2,0]},{"LongName":"Argentina","ShortName":"AR","Types":[1,0]}],"FormattedAddress":"Monte Castro, Autonomous City of Buenos Aires, Argentina","Parent":{"PlaceId":"ChIJvQz5TjvKvJURh47oiC6Bs6A","Bounds":{"northeast":{"lat":-34.5265464,"lng":-58.335144700000008},"southwest":{"lat":-34.7051011,"lng":-58.5314522}},"LocationType":0,"Location":{"lat":-34.6036844,"lng":-58.3815591},"Components":[{"LongName":"Buenos Aires","ShortName":"CABA","Types":[4,0]},{"LongName":"Autonomous City of Buenos Aires","ShortName":"CABA","Types":[2,0]},{"LongName":"Argentina","ShortName":"AR","Types":[1,0]}],"FormattedAddress":"Buenos Aires, Autonomous City of Buenos Aires, Argentina","Parent":{"PlaceId":"ChIJif2PN8nJvJURdmM8-GjGdMs","Bounds":{"northeast":{"lat":-34.6091257,"lng":-58.4713029},"southwest":{"lat":-34.6458181,"lng":-58.5314522}},"LocationType":0,"Location":{"lat":-34.6273345,"lng":-58.5029706},"Components":[{"LongName":"Comuna 10","ShortName":"Comuna 10","Types":[3,0]},{"LongName":"Ciudad Autónoma de Buenos Aires","ShortName":"CABA","Types":[2,0]},{"LongName":"Argentina","ShortName":"AR","Types":[1,0]}],"FormattedAddress":"Comuna 10, Cdad. Autónoma de Buenos Aires, Argentina","Parent":{"PlaceId":"ChIJu39FBT3KvJURF8D35_z0YOE","Bounds":{"northeast":{"lat":-34.5265464,"lng":-58.335144700000008},"southwest":{"lat":-34.7055085,"lng":-58.5314522}},"LocationType":0,"Location":{"lat":-34.6037618,"lng":-58.381714999999993},"Components":[{"LongName":"Autonomous City of Buenos Aires","ShortName":"CABA","Types":[2,0]},{"LongName":"Argentina","ShortName":"AR","Types":[1,0]}],"FormattedAddress":"Autonomous City of Buenos Aires, Argentina","Parent":{"PlaceId":"ChIJZ8b99fXKvJURqA_wKpl3Lz0","Bounds":{"northeast":{"lat":-21.7810459,"lng":-53.637481},"southwest":{"lat":-55.1250224,"lng":-73.5603601}},"LocationType":0,"Location":{"lat":-38.416097,"lng":-63.616671999999987},"Components":[{"LongName":"Argentina","ShortName":"AR","Types":[1,0]}],"FormattedAddress":"Argentina","Parent":null}}}}},"ChIJB4CXTdVhzB0RI8X6FPKfvXM":{"PlaceId":"ChIJB4CXTdVhzB0RI8X6FPKfvXM","Bounds":{"northeast":{"lat":0.0,"lng":0.0},"southwest":{"lat":0.0,"lng":0.0}},"LocationType":2,"Location":{"lat":-33.8151139,"lng":18.3798995},"Components":[{"LongName":"83","ShortName":"83","Types":[9]},{"LongName":"South Perimeter Road","ShortName":"S Perimeter Rd","Types":[8]},{"LongName":"Robben Island","ShortName":"Robben Island","Types":[0,5,0]},{"LongName":"Robben Island","ShortName":"Robben Island","Types":[4,0]},{"LongName":"Cape Town","ShortName":"Cape Town","Types":[3,0]},{"LongName":"Western Cape","ShortName":"WC","Types":[2,0]},{"LongName":"South Africa","ShortName":"ZA","Types":[1,0]},{"LongName":"7400","ShortName":"7400","Types":[10]}],"FormattedAddress":"83 S Perimeter Rd, Robben Island, 7400, South Africa","Parent":{"PlaceId":"ChIJURLu2YmmNBwRoOikHwxjXeg","Bounds":{"northeast":{"lat":-22.1254241,"lng":38.2216904},"southwest":{"lat":-47.1313489,"lng":16.2816999}},"LocationType":0,"Location":{"lat":-30.559482,"lng":22.937506},"Components":[{"LongName":"South Africa","ShortName":"ZA","Types":[1,0]}],"FormattedAddress":"South Africa","Parent":null}},"ChIJURLu2YmmNBwRoOikHwxjXeg":{"PlaceId":"ChIJURLu2YmmNBwRoOikHwxjXeg","Bounds":{"northeast":{"lat":-22.1254241,"lng":38.2216904},"southwest":{"lat":-47.1313489,"lng":16.2816999}},"LocationType":0,"Location":{"lat":-30.559482,"lng":22.937506},"Components":[{"LongName":"South Africa","ShortName":"ZA","Types":[1,0]}],"FormattedAddress":"South Africa","Parent":null},"ChIJ-1J1s6U62jARnv9mFsSv4ZM":{"PlaceId":"ChIJ-1J1s6U62jARnv9mFsSv4ZM","Bounds":{"northeast":{"lat":0.0,"lng":0.0},"southwest":{"lat":0.0,"lng":0.0}},"LocationType":0,"Location":{"lat":0.0,"lng":0.0},"Components":[{"LongName":"164-166","ShortName":"164-166","Types":[9]},{"LongName":"Tha Phae Road","ShortName":"Tha Phae Rd","Types":[8]},{"LongName":"Tambon Chang Moi","ShortName":"Tambon Chang Moi","Types":[0,5,6]},{"LongName":"Chiang Mai","ShortName":"Chiang Mai","Types":[4,0]},{"LongName":"Amphoe Mueang Chiang Mai","ShortName":"Amphoe Mueang Chiang Mai","Types":[3,0]},{"LongName":"Chang Wat Chiang Mai","ShortName":"จ.เชียงใหม่","Types":[2,0]},{"LongName":"Thailand","ShortName":"TH","Types":[1,0]},{"LongName":"50300","ShortName":"50300","Types":[10]}],"FormattedAddress":"164-166 Tha Phae Rd, Tambon Chang Moi, Amphoe Mueang Chiang Mai, Chang Wat Chiang Mai 50300, Thailand","Parent":{"PlaceId":"ChIJicw2xaU62jARsJK7E-J4He8","Bounds":{"northeast":{"lat":18.8013713,"lng":99.0087344},"southwest":{"lat":18.7840417,"lng":98.9935586}},"LocationType":0,"Location":{"lat":0.0,"lng":0.0},"Components":[{"LongName":"Chang Moi","ShortName":"Chang Moi","Types":[0,5,6]},{"LongName":"Chiang Mai","ShortName":"Chiang Mai","Types":[4,0]},{"LongName":"Mueang Chiang Mai District","ShortName":"Mueang Chiang Mai District","Types":[3,0]},{"LongName":"Chiang Mai","ShortName":"จ.เชียงใหม่","Types":[2,0]},{"LongName":"Thailand","ShortName":"TH","Types":[1,0]}],"FormattedAddress":"Chang Moi, Mueang Chiang Mai District, Chiang Mai, Thailand","Parent":{"PlaceId":"ChIJXW-7kH462jARZ0ObpXBi1Jg","Bounds":{"northeast":{"lat":18.8434085,"lng":99.0512218},"southwest":{"lat":18.7000955,"lng":98.86173269999999}},"LocationType":0,"Location":{"lat":0.0,"lng":0.0},"Components":[{"LongName":"Chiang Mai","ShortName":"Chiang Mai","Types":[4,0]},{"LongName":"Mueang Chiang Mai District","ShortName":"Mueang Chiang Mai District","Types":[3,0]},{"LongName":"Chiang Mai","ShortName":"จ.เชียงใหม่","Types":[2,0]},{"LongName":"Thailand","ShortName":"TH","Types":[1,0]}],"FormattedAddress":"Chiang Mai, Mueang Chiang Mai District, Chiang Mai, Thailand","Parent":{"PlaceId":"ChIJiY86XrM72jARgL76KMlGAxw","Bounds":{"northeast":{"lat":18.850341,"lng":99.017484},"southwest":{"lat":18.786697,"lng":98.894061999999991}},"LocationType":0,"Location":{"lat":0.0,"lng":0.0},"Components":[{"LongName":"50300","ShortName":"50300","Types":[10]},{"LongName":"Chiang Mai","ShortName":"จ.เชียงใหม่","Types":[2,0]},{"LongName":"Thailand","ShortName":"TH","Types":[1,0]}],"FormattedAddress":"Chiang Mai 50300, Thailand","Parent":{"PlaceId":"ChIJzzapQXc62jAR8G2K-sVGAwM","Bounds":{"northeast":{"lat":18.8782902,"lng":99.0512218},"southwest":{"lat":18.6957507,"lng":98.86173269999999}},"LocationType":0,"Location":{"lat":0.0,"lng":0.0},"Components":[{"LongName":"Mueang Chiang Mai District","ShortName":"Mueang Chiang Mai District","Types":[3,0]},{"LongName":"Chiang Mai","ShortName":"จ.เชียงใหม่","Types":[2,0]},{"LongName":"Thailand","ShortName":"TH","Types":[1,0]}],"FormattedAddress":"Mueang Chiang Mai District, Chiang Mai, Thailand","Parent":{"PlaceId":"ChIJQXiZwsjM0DAR1AMlknbhaWo","Bounds":{"northeast":{"lat":20.1475012,"lng":99.5715955},"southwest":{"lat":17.2424831,"lng":98.0079447}},"LocationType":0,"Location":{"lat":0.0,"lng":0.0},"Components":[{"LongName":"Chiang Mai","ShortName":"จ.เชียงใหม่","Types":[2,0]},{"LongName":"Thailand","ShortName":"TH","Types":[1,0]}],"FormattedAddress":"Chiang Mai, Thailand","Parent":{"PlaceId":"ChIJsU1CR_eNTTARAuhXB4gs154","Bounds":{"northeast":{"lat":20.465143,"lng":105.636812},"southwest":{"lat":5.613038,"lng":97.343396}},"LocationType":0,"Location":{"lat":0.0,"lng":0.0},"Components":[{"LongName":"Thailand","ShortName":"TH","Types":[1,0]}],"FormattedAddress":"Thailand","Parent":null}}}}}}},"ChIJicw2xaU62jARsJK7E-J4He8":{"PlaceId":"ChIJicw2xaU62jARsJK7E-J4He8","Bounds":{"northeast":{"lat":18.8013713,"lng":99.0087344},"southwest":{"lat":18.7840417,"lng":98.9935586}},"LocationType":0,"Location":{"lat":0.0,"lng":0.0},"Components":[{"LongName":"Chang Moi","ShortName":"Chang Moi","Types":[0,5,6]},{"LongName":"Chiang Mai","ShortName":"Chiang Mai","Types":[4,0]},{"LongName":"Mueang Chiang Mai District","ShortName":"Mueang Chiang Mai District","Types":[3,0]},{"LongName":"Chiang Mai","ShortName":"จ.เชียงใหม่","Types":[2,0]},{"LongName":"Thailand","ShortName":"TH","Types":[1,0]}],"FormattedAddress":"Chang Moi, Mueang Chiang Mai District, Chiang Mai, Thailand","Parent":{"PlaceId":"ChIJXW-7kH462jARZ0ObpXBi1Jg","Bounds":{"northeast":{"lat":18.8434085,"lng":99.0512218},"southwest":{"lat":18.7000955,"lng":98.86173269999999}},"LocationType":0,"Location":{"lat":0.0,"lng":0.0},"Components":[{"LongName":"Chiang Mai","ShortName":"Chiang Mai","Types":[4,0]},{"LongName":"Mueang Chiang Mai District","ShortName":"Mueang Chiang Mai District","Types":[3,0]},{"LongName":"Chiang Mai","ShortName":"จ.เชียงใหม่","Types":[2,0]},{"LongName":"Thailand","ShortName":"TH","Types":[1,0]}],"FormattedAddress":"Chiang Mai, Mueang Chiang Mai District, Chiang Mai, Thailand","Parent":{"PlaceId":"ChIJiY86XrM72jARgL76KMlGAxw","Bounds":{"northeast":{"lat":18.850341,"lng":99.017484},"southwest":{"lat":18.786697,"lng":98.894061999999991}},"LocationType":0,"Location":{"lat":0.0,"lng":0.0},"Components":[{"LongName":"50300","ShortName":"50300","Types":[10]},{"LongName":"Chiang Mai","ShortName":"จ.เชียงใหม่","Types":[2,0]},{"LongName":"Thailand","ShortName":"TH","Types":[1,0]}],"FormattedAddress":"Chiang Mai 50300, Thailand","Parent":{"PlaceId":"ChIJzzapQXc62jAR8G2K-sVGAwM","Bounds":{"northeast":{"lat":18.8782902,"lng":99.0512218},"southwest":{"lat":18.6957507,"lng":98.86173269999999}},"LocationType":0,"Location":{"lat":0.0,"lng":0.0},"Components":[{"LongName":"Mueang Chiang Mai District","ShortName":"Mueang Chiang Mai District","Types":[3,0]},{"LongName":"Chiang Mai","ShortName":"จ.เชียงใหม่","Types":[2,0]},{"LongName":"Thailand","ShortName":"TH","Types":[1,0]}],"FormattedAddress":"Mueang Chiang Mai District, Chiang Mai, Thailand","Parent":{"PlaceId":"ChIJQXiZwsjM0DAR1AMlknbhaWo","Bounds":{"northeast":{"lat":20.1475012,"lng":99.5715955},"southwest":{"lat":17.2424831,"lng":98.0079447}},"LocationType":0,"Location":{"lat":0.0,"lng":0.0},"Components":[{"LongName":"Chiang Mai","ShortName":"จ.เชียงใหม่","Types":[2,0]},{"LongName":"Thailand","ShortName":"TH","Types":[1,0]}],"FormattedAddress":"Chiang Mai, Thailand","Parent":{"PlaceId":"ChIJsU1CR_eNTTARAuhXB4gs154","Bounds":{"northeast":{"lat":20.465143,"lng":105.636812},"southwest":{"lat":5.613038,"lng":97.343396}},"LocationType":0,"Location":{"lat":0.0,"lng":0.0},"Components":[{"LongName":"Thailand","ShortName":"TH","Types":[1,0]}],"FormattedAddress":"Thailand","Parent":null}}}}}},"ChIJ-QBjjOAM2jARCDAClPi_x9I":{"PlaceId":"ChIJ-QBjjOAM2jARCDAClPi_x9I","Bounds":{"northeast":{"lat":19.2146373,"lng":98.860004899999993},"southwest":{"lat":19.2145362,"lng":98.859046499999991}},"LocationType":0,"Location":{"lat":0.0,"lng":0.0},"Components":[{"LongName":"Unnamed Road","ShortName":"Unnamed Road","Types":[8]},{"LongName":"Tambon Kuet Chang","ShortName":"Tambon Kuet Chang","Types":[4,0]},{"LongName":"Amphoe Mae Taeng","ShortName":"Amphoe Mae Taeng","Types":[3,0]},{"LongName":"Chang Wat Chiang Mai","ShortName":"จ.เชียงใหม่","Types":[2,0]},{"LongName":"Thailand","ShortName":"TH","Types":[1,0]},{"LongName":"50150","ShortName":"50150","Types":[10]}],"FormattedAddress":"Unnamed Road, Tambon Kuet Chang, Amphoe Mae Taeng, Chang Wat Chiang Mai 50150, Thailand","Parent":{"PlaceId":"ChIJYy_IzQB02jAR4I2L-sVGAwQ","Bounds":{"northeast":{"lat":19.3541914,"lng":98.917823700000014},"southwest":{"lat":19.1769808,"lng":98.5888817}},"LocationType":0,"Location":{"lat":0.0,"lng":0.0},"Components":[{"LongName":"Kuet Chang","ShortName":"Kuet Chang","Types":[4,0]},{"LongName":"Mae Taeng District","ShortName":"Mae Taeng District","Types":[3,0]},{"LongName":"Chiang Mai","ShortName":"จ.เชียงใหม่","Types":[2,0]},{"LongName":"Thailand","ShortName":"TH","Types":[1,0]},{"LongName":"50150","ShortName":"50150","Types":[10]}],"FormattedAddress":"Kuet Chang, Mae Taeng District, Chiang Mai 50150, Thailand","Parent":{"PlaceId":"ChIJTSFL_xQN2jAR8Mv6KMlGAxw","Bounds":{"northeast":{"lat":19.353464,"lng":99.154843},"southwest":{"lat":19.020145,"lng":98.56804489999999}},"LocationType":0,"Location":{"lat":0.0,"lng":0.0},"Components":[{"LongName":"50150","ShortName":"50150","Types":[10]},{"LongName":"Mae Taeng District","ShortName":"Mae Taeng District","Types":[3,0]},{"LongName":"Chiang Mai","ShortName":"จ.เชียงใหม่","Types":[2,0]},{"LongName":"Thailand","ShortName":"TH","Types":[1,0]}],"FormattedAddress":"Mae Taeng District, Chiang Mai 50150, Thailand","Parent":{"PlaceId":"ChIJAR6q_BQN2jARQG6K-sVGAwM","Bounds":{"northeast":{"lat":19.3541914,"lng":99.1549326},"southwest":{"lat":19.0253721,"lng":98.5679251}},"LocationType":0,"Location":{"lat":0.0,"lng":0.0},"Components":[{"LongName":"Mae Taeng District","ShortName":"Mae Taeng District","Types":[3,0]},{"LongName":"Chiang Mai","ShortName":"จ.เชียงใหม่","Types":[2,0]},{"LongName":"Thailand","ShortName":"TH","Types":[1,0]}],"FormattedAddress":"Mae Taeng District, Chiang Mai, Thailand","Parent":{"PlaceId":"ChIJQXiZwsjM0DAR1AMlknbhaWo","Bounds":{"northeast":{"lat":20.1475012,"lng":99.5715955},"southwest":{"lat":17.2424831,"lng":98.0079447}},"LocationType":0,"Location":{"lat":0.0,"lng":0.0},"Components":[{"LongName":"Chiang Mai","ShortName":"จ.เชียงใหม่","Types":[2,0]},{"LongName":"Thailand","ShortName":"TH","Types":[1,0]}],"FormattedAddress":"Chiang Mai, Thailand","Parent":{"PlaceId":"ChIJsU1CR_eNTTARAuhXB4gs154","Bounds":{"northeast":{"lat":20.465143,"lng":105.636812},"southwest":{"lat":5.613038,"lng":97.343396}},"LocationType":0,"Location":{"lat":0.0,"lng":0.0},"Components":[{"LongName":"Thailand","ShortName":"TH","Types":[1,0]}],"FormattedAddress":"Thailand","Parent":null}}}}}},"ChIJ-TG1oYFw44kRQnzuNA-FH0E":{"PlaceId":"ChIJ-TG1oYFw44kRQnzuNA-FH0E","Bounds":{"northeast":{"lat":42.3549941,"lng":-71.0518563},"southwest":{"lat":42.352672,"lng":-71.056377099999992}},"LocationType":0,"Location":{"lat":0.0,"lng":0.0},"Components":[{"LongName":"John F Fitzgerald Expressway","ShortName":"MA-3","Types":[8]},{"LongName":"Downtown","ShortName":"Downtown","Types":[7,0]},{"LongName":"Boston","ShortName":"Boston","Types":[4,0]},{"LongName":"Suffolk County","ShortName":"Suffolk County","Types":[3,0]},{"LongName":"Massachusetts","ShortName":"MA","Types":[2,0]},{"LongName":"United States","ShortName":"US","Types":[1,0]}],"FormattedAddress":"John F Fitzgerald Expy & US-1 & Essex St, Boston, MA, USA","Parent":{"PlaceId":"ChIJ031Maodw44kRU7a7SA82hm0","Bounds":{"northeast":{"lat":42.3608983,"lng":-71.0476399},"southwest":{"lat":42.3523649,"lng":-71.054096}},"LocationType":0,"Location":{"lat":0.0,"lng":0.0},"Components":[{"LongName":"Waterfront","ShortName":"Waterfront","Types":[7,0]},{"LongName":"Boston","ShortName":"Boston","Types":[4,0]},{"LongName":"Suffolk County","ShortName":"Suffolk County","Types":[3,0]},{"LongName":"Massachusetts","ShortName":"MA","Types":[2,0]},{"LongName":"United States","ShortName":"US","Types":[1,0]}],"FormattedAddress":"Waterfront, Boston, MA, USA","Parent":{"PlaceId":"ChIJW60DJYNw44kRmL2Ehm4t0Bg","Bounds":{"northeast":{"lat":42.368396999999987,"lng":-71.047795999999991},"southwest":{"lat":42.342797,"lng":-71.072996}},"LocationType":0,"Location":{"lat":0.0,"lng":0.0},"Components":[{"LongName":"Downtown","ShortName":"Downtown","Types":[7,0]},{"LongName":"Boston","ShortName":"Boston","Types":[4,0]},{"LongName":"Suffolk County","ShortName":"Suffolk County","Types":[3,0]},{"LongName":"Massachusetts","ShortName":"MA","Types":[2,0]},{"LongName":"United States","ShortName":"US","Types":[1,0]}],"FormattedAddress":"Downtown, Boston, MA, USA","Parent":{"PlaceId":"ChIJGzE9DS1l44kRoOhiASS_fHg","Bounds":{"northeast":{"lat":42.400819899999988,"lng":-70.749455},"southwest":{"lat":42.22788,"lng":-71.191113}},"LocationType":0,"Location":{"lat":42.3600825,"lng":-71.0588801},"Components":[{"LongName":"Boston","ShortName":"Boston","Types":[4,0]},{"LongName":"Suffolk County","ShortName":"Suffolk County","Types":[3,0]},{"LongName":"Massachusetts","ShortName":"MA","Types":[2,0]},{"LongName":"United States","ShortName":"US","Types":[1,0]}],"FormattedAddress":"Boston, MA, USA","Parent":{"PlaceId":"ChIJU-wQg2l544kR0Aqrq285GNg","Bounds":{"northeast":{"lat":42.331939899999988,"lng":-71.0936799},"southwest":{"lat":42.287366899999988,"lng":-71.137148799999991}},"LocationType":0,"Location":{"lat":42.3097365,"lng":-71.1151431},"Components":[{"LongName":"02130","ShortName":"02130","Types":[10]},{"LongName":"Jamaica Plain","ShortName":"Jamaica Plain","Types":[7,0]},{"LongName":"Boston","ShortName":"Boston","Types":[4,0]},{"LongName":"Suffolk County","ShortName":"Suffolk County","Types":[3,0]},{"LongName":"Massachusetts","ShortName":"MA","Types":[2,0]},{"LongName":"United States","ShortName":"US","Types":[1,0]}],"FormattedAddress":"Jamaica Plain, MA 02130, USA","Parent":{"PlaceId":"ChIJ6TarW9Sc44kR4nUWuotzEyI","Bounds":{"northeast":{"lat":42.4500959,"lng":-70.648072},"southwest":{"lat":42.22788,"lng":-71.191113}},"LocationType":0,"Location":{"lat":42.3522866,"lng":-71.0504229},"Components":[{"LongName":"Suffolk County","ShortName":"Suffolk County","Types":[3,0]},{"LongName":"Massachusetts","ShortName":"MA","Types":[2,0]},{"LongName":"United States","ShortName":"US","Types":[1,0]}],"FormattedAddress":"Suffolk County, MA, USA","Parent":{"PlaceId":"ChIJA9NWegR244kRF6B2phYlXis","Bounds":{"northeast":{"lat":43.082038,"lng":-70.5255671},"southwest":{"lat":41.7628401,"lng":-71.947663}},"LocationType":0,"Location":{"lat":42.7104806,"lng":-71.3824374},"Components":[{"LongName":"Boston-Cambridge-Quincy, MA-NH","ShortName":"Boston-Cambridge-Quincy, MA-NH","Types":[0]},{"LongName":"United States","ShortName":"US","Types":[1,0]}],"FormattedAddress":"Boston-Cambridge-Quincy, MA-NH, USA","Parent":{"PlaceId":"ChIJZ11RHIcL44kRFgTm6pE69b8","Bounds":{"northeast":{"lat":43.573012,"lng":-70.5255671},"southwest":{"lat":41.6245321,"lng":-71.8987166}},"LocationType":0,"Location":{"lat":42.5865746,"lng":-71.097317},"Components":[{"LongName":"Boston-Cambridge-Quincy, MA-NH","ShortName":"Boston-Cambridge-Quincy, MA-NH","Types":[0]},{"LongName":"United States","ShortName":"US","Types":[1,0]}],"FormattedAddress":"Boston-Cambridge-Quincy, MA-NH, USA","Parent":{"PlaceId":"ChIJQ-TFt5IL44kR1kcVhdMVrXg","Bounds":{"northeast":{"lat":43.573012,"lng":-70.3225219},"southwest":{"lat":41.5658509,"lng":-71.8987159}},"LocationType":0,"Location":{"lat":42.3600709,"lng":-71.0588305},"Components":[{"LongName":"Boston Metropolitan Area","ShortName":"Boston Metropolitan Area","Types":[0]},{"LongName":"United States","ShortName":"US","Types":[1,0]}],"FormattedAddress":"Boston Metropolitan Area, USA","Parent":{"PlaceId":"ChIJ_b9z6W1l44kRHA2DVTbQxkU","Bounds":{"northeast":{"lat":42.88679,"lng":-69.85886099999999},"southwest":{"lat":41.187053000000013,"lng":-73.5081419}},"LocationType":0,"Location":{"lat":42.4072107,"lng":-71.3824374},"Components":[{"LongName":"Massachusetts","ShortName":"MA","Types":[2,0,0,0]},{"LongName":"United States","ShortName":"US","Types":[1,0]}],"FormattedAddress":"Massachusetts, USA","Parent":{"PlaceId":"ChIJCzYy5IS16lQRQrfeQ5K5Oxw","Bounds":{"northeast":{"lat":71.5388001,"lng":-66.885417},"southwest":{"lat":18.7763,"lng":170.5957}},"LocationType":0,"Location":{"lat":0.0,"lng":0.0},"Components":[{"LongName":"United States","ShortName":"US","Types":[1,0]}],"FormattedAddress":"United States","Parent":null}}}}}}}}}}},"ChIJ0x20fPSs8TURVV2334SOhwA":{"PlaceId":"ChIJ0x20fPSs8TURVV2334SOhwA","Bounds":{"northeast":{"lat":39.930196300000013,"lng":116.4614177},"southwest":{"lat":39.9295271,"lng":116.4614063}},"LocationType":0,"Location":{"lat":0.0,"lng":0.0},"Components":[{"LongName":"Dong San Huan Bei Lu Fu Lu","ShortName":"Dong San Huan Bei Lu Fu Lu","Types":[8]},{"LongName":"TuanJieHu","ShortName":"TuanJieHu","Types":[7,0]},{"LongName":"Chaoyang Qu","ShortName":"Chaoyang Qu","Types":[0,5,6]},{"LongName":"Beijing","ShortName":"Beijing","Types":[4,0]},{"LongName":"Beijing Shi","ShortName":"Beijing Shi","Types":[2,0]},{"LongName":"China","ShortName":"CN","Types":[1,0]},{"LongName":"100026","ShortName":"100026","Types":[10]}],"FormattedAddress":"Dong San Huan Bei Lu Fu Lu, TuanJieHu, Chaoyang Qu, Beijing Shi, China, 100026","Parent":{"PlaceId":"ChIJNX4jVF6s8TUR-ic4p0DIjFA","Bounds":{"northeast":{"lat":39.9342946,"lng":116.4789972},"southwest":{"lat":39.9221834,"lng":116.4607649}},"LocationType":0,"Location":{"lat":0.0,"lng":0.0},"Components":[{"LongName":"Tuanjiehu","ShortName":"Tuanjiehu","Types":[7,0]},{"LongName":"Chaoyang","ShortName":"Chaoyang","Types":[0,5,6]},{"LongName":"Beijing","ShortName":"Beijing","Types":[4,0]},{"LongName":"Beijing","ShortName":"Beijing","Types":[2,0]},{"LongName":"China","ShortName":"CN","Types":[1,0]}],"FormattedAddress":"Tuanjiehu, Chaoyang, Beijing, China","Parent":{"PlaceId":"ChIJR2lzI-6r8TUROoHQJjCLu9c","Bounds":{"northeast":{"lat":40.107933,"lng":116.6452732},"southwest":{"lat":39.8097688,"lng":116.3508829}},"LocationType":0,"Location":{"lat":0.0,"lng":0.0},"Components":[{"LongName":"Chaoyang","ShortName":"Chaoyang","Types":[0,5,6]},{"LongName":"Beijing","ShortName":"Beijing","Types":[4,0]},{"LongName":"Beijing","ShortName":"Beijing","Types":[2,0]},{"LongName":"China","ShortName":"CN","Types":[1,0]}],"FormattedAddress":"Chaoyang, Beijing, China","Parent":{"PlaceId":"ChIJuSwU55ZS8DURiqkPryBWYrk","Bounds":{"northeast":{"lat":41.0608159,"lng":117.514625},"southwest":{"lat":39.4427581,"lng":115.4234116}},"LocationType":0,"Location":{"lat":0.0,"lng":0.0},"Components":[{"LongName":"Beijing","ShortName":"Beijing","Types":[4,0]},{"LongName":"Beijing","ShortName":"Beijing","Types":[2,0]},{"LongName":"China","ShortName":"CN","Types":[1,0]}],"FormattedAddress":"Beijing, China","Parent":{"PlaceId":"ChIJmdlpax2t8TURccmE-O7qFjo","Bounds":{"northeast":{"lat":39.9514639,"lng":116.5123217},"southwest":{"lat":39.8982469,"lng":116.4252907}},"LocationType":0,"Location":{"lat":0.0,"lng":0.0},"Components":[{"LongName":"100020","ShortName":"100020","Types":[10]},{"LongName":"Chaoyang","ShortName":"Chaoyang","Types":[0,5,6]},{"LongName":"Beijing","ShortName":"Beijing","Types":[4,0]},{"LongName":"Beijing","ShortName":"Beijing","Types":[2,0]},{"LongName":"China","ShortName":"CN","Types":[1,0]}],"FormattedAddress":"Chaoyang, Beijing, China, 100020","Parent":{"PlaceId":"ChIJS_5hD32s8TUR-7v8cbEJ5cw","Bounds":{"northeast":{"lat":39.9503795,"lng":116.5064223},"southwest":{"lat":39.8976863,"lng":116.4429943}},"LocationType":0,"Location":{"lat":0.0,"lng":0.0},"Components":[{"LongName":"100026","ShortName":"100026","Types":[10]},{"LongName":"Chaoyang","ShortName":"Chaoyang","Types":[0,5,6]},{"LongName":"Beijing","ShortName":"Beijing","Types":[4,0]},{"LongName":"Beijing","ShortName":"Beijing","Types":[2,0]},{"LongName":"China","ShortName":"CN","Types":[1,0]}],"FormattedAddress":"Chaoyang, Beijing, China, 100026","Parent":{"PlaceId":"ChIJuSwU55ZS8DURp8_dOLuVd8A","Bounds":{"northeast":{"lat":41.0608159,"lng":117.514625},"southwest":{"lat":39.4427581,"lng":115.4234116}},"LocationType":0,"Location":{"lat":0.0,"lng":0.0},"Components":[{"LongName":"Beijing","ShortName":"Beijing","Types":[2,0]},{"LongName":"China","ShortName":"CN","Types":[1,0]}],"FormattedAddress":"Beijing, China","Parent":{"PlaceId":"ChIJwULG5WSOUDERbzafNHyqHZU","Bounds":{"northeast":{"lat":53.560973999999987,"lng":134.7728099},"southwest":{"lat":17.9996,"lng":73.4994136}},"LocationType":0,"Location":{"lat":0.0,"lng":0.0},"Components":[{"LongName":"China","ShortName":"CN","Types":[1,0]}],"FormattedAddress":"China","Parent":null}}}}}}}},"ChIJ1cMi5ww52jARyAFwpxE4cGU":{"PlaceId":"ChIJ1cMi5ww52jARyAFwpxE4cGU","Bounds":{"northeast":{"lat":18.8410154,"lng":98.901402699999991},"southwest":{"lat":18.8401746,"lng":98.9004911}},"LocationType":0,"Location":{"lat":0.0,"lng":0.0},"Components":[{"LongName":"Unnamed Road","ShortName":"Unnamed Road","Types":[8]},{"LongName":"Tambon Don Kaeo","ShortName":"Tambon Don Kaeo","Types":[4,0]},{"LongName":"Amphoe Mae Rim","ShortName":"Amphoe Mae Rim","Types":[3,0]},{"LongName":"Chang Wat Chiang Mai","ShortName":"จ.เชียงใหม่","Types":[2,0]},{"LongName":"Thailand","ShortName":"TH","Types":[1,0]},{"LongName":"50300","ShortName":"50300","Types":[10]}],"FormattedAddress":"Unnamed Road, Tambon Don Kaeo, Amphoe Mae Rim, Chang Wat Chiang Mai 50300, Thailand","Parent":{"PlaceId":"ChIJHcW7U-872jARkI6L-sVGAwQ","Bounds":{"northeast":{"lat":18.8878469,"lng":98.98661589999999},"southwest":{"lat":18.8325945,"lng":98.885663799999989}},"LocationType":0,"Location":{"lat":0.0,"lng":0.0},"Components":[{"LongName":"Don Kaeo","ShortName":"Don Kaeo","Types":[4,0]},{"LongName":"Mae Rim District","ShortName":"Mae Rim District","Types":[3,0]},{"LongName":"Chiang Mai","ShortName":"จ.เชียงใหม่","Types":[2,0]},{"LongName":"Thailand","ShortName":"TH","Types":[1,0]}],"FormattedAddress":"Don Kaeo, Mae Rim District, Chiang Mai, Thailand","Parent":{"PlaceId":"ChIJiY86XrM72jARgL76KMlGAxw","Bounds":{"northeast":{"lat":18.850341,"lng":99.017484},"southwest":{"lat":18.786697,"lng":98.894061999999991}},"LocationType":0,"Location":{"lat":0.0,"lng":0.0},"Components":[{"LongName":"50300","ShortName":"50300","Types":[10]},{"LongName":"Chiang Mai","ShortName":"จ.เชียงใหม่","Types":[2,0]},{"LongName":"Thailand","ShortName":"TH","Types":[1,0]}],"FormattedAddress":"Chiang Mai 50300, Thailand","Parent":{"PlaceId":"ChIJzzapQXc62jAR8G2K-sVGAwM","Bounds":{"northeast":{"lat":18.8782902,"lng":99.0512218},"southwest":{"lat":18.6957507,"lng":98.86173269999999}},"LocationType":0,"Location":{"lat":0.0,"lng":0.0},"Components":[{"LongName":"Mueang Chiang Mai District","ShortName":"Mueang Chiang Mai District","Types":[3,0]},{"LongName":"Chiang Mai","ShortName":"จ.เชียงใหม่","Types":[2,0]},{"LongName":"Thailand","ShortName":"TH","Types":[1,0]}],"FormattedAddress":"Mueang Chiang Mai District, Chiang Mai, Thailand","Parent":{"PlaceId":"ChIJQXiZwsjM0DAR1AMlknbhaWo","Bounds":{"northeast":{"lat":20.1475012,"lng":99.5715955},"southwest":{"lat":17.2424831,"lng":98.0079447}},"LocationType":0,"Location":{"lat":0.0,"lng":0.0},"Components":[{"LongName":"Chiang Mai","ShortName":"จ.เชียงใหม่","Types":[2,0]},{"LongName":"Thailand","ShortName":"TH","Types":[1,0]}],"FormattedAddress":"Chiang Mai, Thailand","Parent":{"PlaceId":"ChIJsU1CR_eNTTARAuhXB4gs154","Bounds":{"northeast":{"lat":20.465143,"lng":105.636812},"southwest":{"lat":5.613038,"lng":97.343396}},"LocationType":0,"Location":{"lat":0.0,"lng":0.0},"Components":[{"LongName":"Thailand","ShortName":"TH","Types":[1,0]}],"FormattedAddress":"Thailand","Parent":null}}}}}},"ChIJ21xgnywHmzYR9AQULZ7YmoM":{"PlaceId":"ChIJ21xgnywHmzYR9AQULZ7YmoM","Bounds":{"northeast":{"lat":29.3243001,"lng":110.4317867},"southwest":{"lat":29.3167438,"lng":110.4236279}},"LocationType":0,"Location":{"lat":0.0,"lng":0.0},"Components":[{"LongName":"Unnamed Road","ShortName":"Unnamed Road","Types":[8]},{"LongName":"Wulingyuan Qu","ShortName":"Wulingyuan Qu","Types":[0,5,6]},{"LongName":"Zhangjiajie Shi","ShortName":"Zhangjiajie Shi","Types":[4,0]},{"LongName":"Hunan Sheng","ShortName":"Hunan Sheng","Types":[2,0]},{"LongName":"China","ShortName":"CN","Types":[1,0]},{"LongName":"427400","ShortName":"427400","Types":[10]}],"FormattedAddress":"Unnamed Road, Wulingyuan Qu, Zhangjiajie Shi, Hunan Sheng, China, 427400","Parent":{"PlaceId":"ChIJK_Tz4ssImzYRdkefb1n5ByI","Bounds":{"northeast":{"lat":29.4508014,"lng":110.695913},"southwest":{"lat":29.216957399999991,"lng":110.3077327}},"LocationType":0,"Location":{"lat":0.0,"lng":0.0},"Components":[{"LongName":"Wulingyuan","ShortName":"Wulingyuan","Types":[0,5,6]},{"LongName":"Zhangjiajie","ShortName":"Zhangjiajie","Types":[4,0]},{"LongName":"Hunan","ShortName":"Hunan","Types":[2,0]},{"LongName":"China","ShortName":"CN","Types":[1,0]}],"FormattedAddress":"Wulingyuan, Zhangjiajie, Hunan, China","Parent":{"PlaceId":"ChIJmVW2gyEGmzYRVpDCIF2LkGE","Bounds":{"northeast":{"lat":29.7896781,"lng":111.337528},"southwest":{"lat":28.874109,"lng":109.7012344}},"LocationType":0,"Location":{"lat":0.0,"lng":0.0},"Components":[{"LongName":"Zhangjiajie","ShortName":"Zhangjiajie","Types":[4,0]},{"LongName":"Hunan","ShortName":"Hunan","Types":[2,0]},{"LongName":"China","ShortName":"CN","Types":[1,0]}],"FormattedAddress":"Zhangjiajie, Hunan, China","Parent":{"PlaceId":"ChIJxc-IIDAHmzYRRr5F-17B82g","Bounds":{"northeast":{"lat":29.3407619,"lng":110.5349534},"southwest":{"lat":29.2903884,"lng":110.4262089}},"LocationType":0,"Location":{"lat":0.0,"lng":0.0},"Components":[{"LongName":"427401","ShortName":"427401","Types":[10]},{"LongName":"Wulingyuan","ShortName":"Wulingyuan","Types":[0,5,6]},{"LongName":"Zhangjiajie","ShortName":"Zhangjiajie","Types":[4,0]},{"LongName":"Hunan","ShortName":"Hunan","Types":[2,0]},{"LongName":"China","ShortName":"CN","Types":[1,0]}],"FormattedAddress":"Wulingyuan, Zhangjiajie, Hunan, China, 427401","Parent":{"PlaceId":"ChIJ0Weh48sImzYR0qAIWH3M4f8","Bounds":{"northeast":{"lat":29.4750259,"lng":110.5692178},"southwest":{"lat":29.1232154,"lng":110.3308813}},"LocationType":0,"Location":{"lat":0.0,"lng":0.0},"Components":[{"LongName":"427400","ShortName":"427400","Types":[10]},{"LongName":"Wulingyuan","ShortName":"Wulingyuan","Types":[0,5,6]},{"LongName":"Zhangjiajie","ShortName":"Zhangjiajie","Types":[4,0]},{"LongName":"Hunan","ShortName":"Hunan","Types":[2,0]},{"LongName":"China","ShortName":"CN","Types":[1,0]}],"FormattedAddress":"Wulingyuan, Zhangjiajie, Hunan, China, 427400","Parent":{"PlaceId":"ChIJTTiHaRi6IDQR5Syu5AuRIcw","Bounds":{"northeast":{"lat":30.1263631,"lng":114.2612647},"southwest":{"lat":24.6363233,"lng":108.7908414}},"LocationType":0,"Location":{"lat":0.0,"lng":0.0},"Components":[{"LongName":"Hunan","ShortName":"Hunan","Types":[2,0]},{"LongName":"China","ShortName":"CN","Types":[1,0]}],"FormattedAddress":"Hunan, China","Parent":{"PlaceId":"ChIJwULG5WSOUDERbzafNHyqHZU","Bounds":{"northeast":{"lat":53.560973999999987,"lng":134.7728099},"southwest":{"lat":17.9996,"lng":73.4994136}},"LocationType":0,"Location":{"lat":0.0,"lng":0.0},"Components":[{"LongName":"China","ShortName":"CN","Types":[1,0]}],"FormattedAddress":"China","Parent":null}}}}}}},"ChIJ27TNsBB644kRD0tQBlR-Od4":{"PlaceId":"ChIJ27TNsBB644kRD0tQBlR-Od4","Bounds":{"northeast":{"lat":0.0,"lng":0.0},"southwest":{"lat":0.0,"lng":0.0}},"LocationType":0,"Location":{"lat":0.0,"lng":0.0},"Components":[{"LongName":"238","ShortName":"238","Types":[9]},{"LongName":"Huntington Avenue","ShortName":"Huntington Ave","Types":[8]},{"LongName":"Prudential / St. Botolph","ShortName":"Prudential / St. Botolph","Types":[7,0]},{"LongName":"Boston","ShortName":"Boston","Types":[4,0]},{"LongName":"Suffolk County","ShortName":"Suffolk County","Types":[3,0]},{"LongName":"Massachusetts","ShortName":"MA","Types":[2,0]},{"LongName":"United States","ShortName":"US","Types":[1,0]},{"LongName":"02115","ShortName":"02115","Types":[10]},{"LongName":"4702","ShortName":"4702","Types":[11]}],"FormattedAddress":"238 Huntington Ave, Boston, MA 02115, USA","Parent":{"PlaceId":"ChIJE1kYrBB644kR4d1ZjMg0vGk","Bounds":{"northeast":{"lat":0.0,"lng":0.0},"southwest":{"lat":0.0,"lng":0.0}},"LocationType":0,"Location":{"lat":0.0,"lng":0.0},"Components":[{"LongName":"Huntington Ave @ Mass Ave","ShortName":"Huntington Ave @ Mass Ave","Types":[0,0,0,0]},{"LongName":"Fenway/Kenmore","ShortName":"Fenway/Kenmore","Types":[7,0]},{"LongName":"Boston","ShortName":"Boston","Types":[4,0]},{"LongName":"Suffolk County","ShortName":"Suffolk County","Types":[3,0]},{"LongName":"Massachusetts","ShortName":"MA","Types":[2,0]},{"LongName":"United States","ShortName":"US","Types":[1,0]},{"LongName":"02115","ShortName":"02115","Types":[10]}],"FormattedAddress":"Huntington Ave @ Mass Ave, Boston, MA 02115, USA","Parent":{"PlaceId":"ChIJx-iOBw5644kR6Dyx_JhHqQ0","Bounds":{"northeast":{"lat":42.350416,"lng":-71.0723761},"southwest":{"lat":42.341597,"lng":-71.085495999999992}},"LocationType":0,"Location":{"lat":0.0,"lng":0.0},"Components":[{"LongName":"Prudential / St. Botolph","ShortName":"Prudential / St. Botolph","Types":[7,0]},{"LongName":"Boston","ShortName":"Boston","Types":[4,0]},{"LongName":"Suffolk County","ShortName":"Suffolk County","Types":[3,0]},{"LongName":"Massachusetts","ShortName":"MA","Types":[2,0]},{"LongName":"United States","ShortName":"US","Types":[1,0]}],"FormattedAddress":"Prudential / St. Botolph, Boston, MA, USA","Parent":{"PlaceId":"ChIJsfUV-A5644kRxFubWZLMo7w","Bounds":{"northeast":{"lat":42.356983,"lng":-71.070289899999992},"southwest":{"lat":42.341597,"lng":-71.0932962}},"LocationType":0,"Location":{"lat":0.0,"lng":0.0},"Components":[{"LongName":"Back Bay","ShortName":"Back Bay","Types":[7,0]},{"LongName":"Boston","ShortName":"Boston","Types":[4,0]},{"LongName":"Suffolk County","ShortName":"Suffolk County","Types":[3,0]},{"LongName":"Massachusetts","ShortName":"MA","Types":[2,0]},{"LongName":"United States","ShortName":"US","Types":[1,0]}],"FormattedAddress":"Back Bay, Boston, MA, USA","Parent":{"PlaceId":"ChIJGzE9DS1l44kRoOhiASS_fHg","Bounds":{"northeast":{"lat":42.400819899999988,"lng":-70.749455},"southwest":{"lat":42.22788,"lng":-71.191113}},"LocationType":0,"Location":{"lat":42.3600825,"lng":-71.0588801},"Components":[{"LongName":"Boston","ShortName":"Boston","Types":[4,0]},{"LongName":"Suffolk County","ShortName":"Suffolk County","Types":[3,0]},{"LongName":"Massachusetts","ShortName":"MA","Types":[2,0]},{"LongName":"United States","ShortName":"US","Types":[1,0]}],"FormattedAddress":"Boston, MA, USA","Parent":{"PlaceId":"ChIJU-wQg2l544kR0Aqrq285GNg","Bounds":{"northeast":{"lat":42.331939899999988,"lng":-71.0936799},"southwest":{"lat":42.287366899999988,"lng":-71.137148799999991}},"LocationType":0,"Location":{"lat":42.3097365,"lng":-71.1151431},"Components":[{"LongName":"02130","ShortName":"02130","Types":[10]},{"LongName":"Jamaica Plain","ShortName":"Jamaica Plain","Types":[7,0]},{"LongName":"Boston","ShortName":"Boston","Types":[4,0]},{"LongName":"Suffolk County","ShortName":"Suffolk County","Types":[3,0]},{"LongName":"Massachusetts","ShortName":"MA","Types":[2,0]},{"LongName":"United States","ShortName":"US","Types":[1,0]}],"FormattedAddress":"Jamaica Plain, MA 02130, USA","Parent":{"PlaceId":"ChIJ6TarW9Sc44kR4nUWuotzEyI","Bounds":{"northeast":{"lat":42.4500959,"lng":-70.648072},"southwest":{"lat":42.22788,"lng":-71.191113}},"LocationType":0,"Location":{"lat":42.3522866,"lng":-71.0504229},"Components":[{"LongName":"Suffolk County","ShortName":"Suffolk County","Types":[3,0]},{"LongName":"Massachusetts","ShortName":"MA","Types":[2,0]},{"LongName":"United States","ShortName":"US","Types":[1,0]}],"FormattedAddress":"Suffolk County, MA, USA","Parent":{"PlaceId":"ChIJA9NWegR244kRF6B2phYlXis","Bounds":{"northeast":{"lat":43.082038,"lng":-70.5255671},"southwest":{"lat":41.7628401,"lng":-71.947663}},"LocationType":0,"Location":{"lat":42.7104806,"lng":-71.3824374},"Components":[{"LongName":"Boston-Cambridge-Quincy, MA-NH","ShortName":"Boston-Cambridge-Quincy, MA-NH","Types":[0]},{"LongName":"United States","ShortName":"US","Types":[1,0]}],"FormattedAddress":"Boston-Cambridge-Quincy, MA-NH, USA","Parent":{"PlaceId":"ChIJZ11RHIcL44kRFgTm6pE69b8","Bounds":{"northeast":{"lat":43.573012,"lng":-70.5255671},"southwest":{"lat":41.6245321,"lng":-71.8987166}},"LocationType":0,"Location":{"lat":42.5865746,"lng":-71.097317},"Components":[{"LongName":"Boston-Cambridge-Quincy, MA-NH","ShortName":"Boston-Cambridge-Quincy, MA-NH","Types":[0]},{"LongName":"United States","ShortName":"US","Types":[1,0]}],"FormattedAddress":"Boston-Cambridge-Quincy, MA-NH, USA","Parent":{"PlaceId":"ChIJQ-TFt5IL44kR1kcVhdMVrXg","Bounds":{"northeast":{"lat":43.573012,"lng":-70.3225219},"southwest":{"lat":41.5658509,"lng":-71.8987159}},"LocationType":0,"Location":{"lat":42.3600709,"lng":-71.0588305},"Components":[{"LongName":"Boston Metropolitan Area","ShortName":"Boston Metropolitan Area","Types":[0]},{"LongName":"United States","ShortName":"US","Types":[1,0]}],"FormattedAddress":"Boston Metropolitan Area, USA","Parent":{"PlaceId":"ChIJ_b9z6W1l44kRHA2DVTbQxkU","Bounds":{"northeast":{"lat":42.88679,"lng":-69.85886099999999},"southwest":{"lat":41.187053000000013,"lng":-73.5081419}},"LocationType":0,"Location":{"lat":42.4072107,"lng":-71.3824374},"Components":[{"LongName":"Massachusetts","ShortName":"MA","Types":[2,0,0,0]},{"LongName":"United States","ShortName":"US","Types":[1,0]}],"FormattedAddress":"Massachusetts, USA","Parent":{"PlaceId":"ChIJCzYy5IS16lQRQrfeQ5K5Oxw","Bounds":{"northeast":{"lat":71.5388001,"lng":-66.885417},"southwest":{"lat":18.7763,"lng":170.5957}},"LocationType":0,"Location":{"lat":0.0,"lng":0.0},"Components":[{"LongName":"United States","ShortName":"US","Types":[1,0]}],"FormattedAddress":"United States","Parent":null}}}}}}}}}}}},"ChIJE1kYrBB644kR4d1ZjMg0vGk":{"PlaceId":"ChIJE1kYrBB644kR4d1ZjMg0vGk","Bounds":{"northeast":{"lat":0.0,"lng":0.0},"southwest":{"lat":0.0,"lng":0.0}},"LocationType":0,"Location":{"lat":0.0,"lng":0.0},"Components":[{"LongName":"Huntington Ave @ Mass Ave","ShortName":"Huntington Ave @ Mass Ave","Types":[0,0,0,0]},{"LongName":"Fenway/Kenmore","ShortName":"Fenway/Kenmore","Types":[7,0]},{"LongName":"Boston","ShortName":"Boston","Types":[4,0]},{"LongName":"Suffolk County","ShortName":"Suffolk County","Types":[3,0]},{"LongName":"Massachusetts","ShortName":"MA","Types":[2,0]},{"LongName":"United States","ShortName":"US","Types":[1,0]},{"LongName":"02115","ShortName":"02115","Types":[10]}],"FormattedAddress":"Huntington Ave @ Mass Ave, Boston, MA 02115, USA","Parent":{"PlaceId":"ChIJx-iOBw5644kR6Dyx_JhHqQ0","Bounds":{"northeast":{"lat":42.350416,"lng":-71.0723761},"southwest":{"lat":42.341597,"lng":-71.085495999999992}},"LocationType":0,"Location":{"lat":0.0,"lng":0.0},"Components":[{"LongName":"Prudential / St. Botolph","ShortName":"Prudential / St. Botolph","Types":[7,0]},{"LongName":"Boston","ShortName":"Boston","Types":[4,0]},{"LongName":"Suffolk County","ShortName":"Suffolk County","Types":[3,0]},{"LongName":"Massachusetts","ShortName":"MA","Types":[2,0]},{"LongName":"United States","ShortName":"US","Types":[1,0]}],"FormattedAddress":"Prudential / St. Botolph, Boston, MA, USA","Parent":{"PlaceId":"ChIJsfUV-A5644kRxFubWZLMo7w","Bounds":{"northeast":{"lat":42.356983,"lng":-71.070289899999992},"southwest":{"lat":42.341597,"lng":-71.0932962}},"LocationType":0,"Location":{"lat":0.0,"lng":0.0},"Components":[{"LongName":"Back Bay","ShortName":"Back Bay","Types":[7,0]},{"LongName":"Boston","ShortName":"Boston","Types":[4,0]},{"LongName":"Suffolk County","ShortName":"Suffolk County","Types":[3,0]},{"LongName":"Massachusetts","ShortName":"MA","Types":[2,0]},{"LongName":"United States","ShortName":"US","Types":[1,0]}],"FormattedAddress":"Back Bay, Boston, MA, USA","Parent":{"PlaceId":"ChIJGzE9DS1l44kRoOhiASS_fHg","Bounds":{"northeast":{"lat":42.400819899999988,"lng":-70.749455},"southwest":{"lat":42.22788,"lng":-71.191113}},"LocationType":0,"Location":{"lat":42.3600825,"lng":-71.0588801},"Components":[{"LongName":"Boston","ShortName":"Boston","Types":[4,0]},{"LongName":"Suffolk County","ShortName":"Suffolk County","Types":[3,0]},{"LongName":"Massachusetts","ShortName":"MA","Types":[2,0]},{"LongName":"United States","ShortName":"US","Types":[1,0]}],"FormattedAddress":"Boston, MA, USA","Parent":{"PlaceId":"ChIJU-wQg2l544kR0Aqrq285GNg","Bounds":{"northeast":{"lat":42.331939899999988,"lng":-71.0936799},"southwest":{"lat":42.287366899999988,"lng":-71.137148799999991}},"LocationType":0,"Location":{"lat":42.3097365,"lng":-71.1151431},"Components":[{"LongName":"02130","ShortName":"02130","Types":[10]},{"LongName":"Jamaica Plain","ShortName":"Jamaica Plain","Types":[7,0]},{"LongName":"Boston","ShortName":"Boston","Types":[4,0]},{"LongName":"Suffolk County","ShortName":"Suffolk County","Types":[3,0]},{"LongName":"Massachusetts","ShortName":"MA","Types":[2,0]},{"LongName":"United States","ShortName":"US","Types":[1,0]}],"FormattedAddress":"Jamaica Plain, MA 02130, USA","Parent":{"PlaceId":"ChIJ6TarW9Sc44kR4nUWuotzEyI","Bounds":{"northeast":{"lat":42.4500959,"lng":-70.648072},"southwest":{"lat":42.22788,"lng":-71.191113}},"LocationType":0,"Location":{"lat":42.3522866,"lng":-71.0504229},"Components":[{"LongName":"Suffolk County","ShortName":"Suffolk County","Types":[3,0]},{"LongName":"Massachusetts","ShortName":"MA","Types":[2,0]},{"LongName":"United States","ShortName":"US","Types":[1,0]}],"FormattedAddress":"Suffolk County, MA, USA","Parent":{"PlaceId":"ChIJA9NWegR244kRF6B2phYlXis","Bounds":{"northeast":{"lat":43.082038,"lng":-70.5255671},"southwest":{"lat":41.7628401,"lng":-71.947663}},"LocationType":0,"Location":{"lat":42.7104806,"lng":-71.3824374},"Components":[{"LongName":"Boston-Cambridge-Quincy, MA-NH","ShortName":"Boston-Cambridge-Quincy, MA-NH","Types":[0]},{"LongName":"United States","ShortName":"US","Types":[1,0]}],"FormattedAddress":"Boston-Cambridge-Quincy, MA-NH, USA","Parent":{"PlaceId":"ChIJZ11RHIcL44kRFgTm6pE69b8","Bounds":{"northeast":{"lat":43.573012,"lng":-70.5255671},"southwest":{"lat":41.6245321,"lng":-71.8987166}},"LocationType":0,"Location":{"lat":42.5865746,"lng":-71.097317},"Components":[{"LongName":"Boston-Cambridge-Quincy, MA-NH","ShortName":"Boston-Cambridge-Quincy, MA-NH","Types":[0]},{"LongName":"United States","ShortName":"US","Types":[1,0]}],"FormattedAddress":"Boston-Cambridge-Quincy, MA-NH, USA","Parent":{"PlaceId":"ChIJQ-TFt5IL44kR1kcVhdMVrXg","Bounds":{"northeast":{"lat":43.573012,"lng":-70.3225219},"southwest":{"lat":41.5658509,"lng":-71.8987159}},"LocationType":0,"Location":{"lat":42.3600709,"lng":-71.0588305},"Components":[{"LongName":"Boston Metropolitan Area","ShortName":"Boston Metropolitan Area","Types":[0]},{"LongName":"United States","ShortName":"US","Types":[1,0]}],"FormattedAddress":"Boston Metropolitan Area, USA","Parent":{"PlaceId":"ChIJ_b9z6W1l44kRHA2DVTbQxkU","Bounds":{"northeast":{"lat":42.88679,"lng":-69.85886099999999},"southwest":{"lat":41.187053000000013,"lng":-73.5081419}},"LocationType":0,"Location":{"lat":42.4072107,"lng":-71.3824374},"Components":[{"LongName":"Massachusetts","ShortName":"MA","Types":[2,0,0,0]},{"LongName":"United States","ShortName":"US","Types":[1,0]}],"FormattedAddress":"Massachusetts, USA","Parent":{"PlaceId":"ChIJCzYy5IS16lQRQrfeQ5K5Oxw","Bounds":{"northeast":{"lat":71.5388001,"lng":-66.885417},"southwest":{"lat":18.7763,"lng":170.5957}},"LocationType":0,"Location":{"lat":0.0,"lng":0.0},"Components":[{"LongName":"United States","ShortName":"US","Types":[1,0]}],"FormattedAddress":"United States","Parent":null}}}}}}}}}}},"ChIJx-iOBw5644kR6Dyx_JhHqQ0":{"PlaceId":"ChIJx-iOBw5644kR6Dyx_JhHqQ0","Bounds":{"northeast":{"lat":42.350416,"lng":-71.0723761},"southwest":{"lat":42.341597,"lng":-71.085495999999992}},"LocationType":0,"Location":{"lat":0.0,"lng":0.0},"Components":[{"LongName":"Prudential / St. Botolph","ShortName":"Prudential / St. Botolph","Types":[7,0]},{"LongName":"Boston","ShortName":"Boston","Types":[4,0]},{"LongName":"Suffolk County","ShortName":"Suffolk County","Types":[3,0]},{"LongName":"Massachusetts","ShortName":"MA","Types":[2,0]},{"LongName":"United States","ShortName":"US","Types":[1,0]}],"FormattedAddress":"Prudential / St. Botolph, Boston, MA, USA","Parent":{"PlaceId":"ChIJsfUV-A5644kRxFubWZLMo7w","Bounds":{"northeast":{"lat":42.356983,"lng":-71.070289899999992},"southwest":{"lat":42.341597,"lng":-71.0932962}},"LocationType":0,"Location":{"lat":0.0,"lng":0.0},"Components":[{"LongName":"Back Bay","ShortName":"Back Bay","Types":[7,0]},{"LongName":"Boston","ShortName":"Boston","Types":[4,0]},{"LongName":"Suffolk County","ShortName":"Suffolk County","Types":[3,0]},{"LongName":"Massachusetts","ShortName":"MA","Types":[2,0]},{"LongName":"United States","ShortName":"US","Types":[1,0]}],"FormattedAddress":"Back Bay, Boston, MA, USA","Parent":{"PlaceId":"ChIJGzE9DS1l44kRoOhiASS_fHg","Bounds":{"northeast":{"lat":42.400819899999988,"lng":-70.749455},"southwest":{"lat":42.22788,"lng":-71.191113}},"LocationType":0,"Location":{"lat":42.3600825,"lng":-71.0588801},"Components":[{"LongName":"Boston","ShortName":"Boston","Types":[4,0]},{"LongName":"Suffolk County","ShortName":"Suffolk County","Types":[3,0]},{"LongName":"Massachusetts","ShortName":"MA","Types":[2,0]},{"LongName":"United States","ShortName":"US","Types":[1,0]}],"FormattedAddress":"Boston, MA, USA","Parent":{"PlaceId":"ChIJU-wQg2l544kR0Aqrq285GNg","Bounds":{"northeast":{"lat":42.331939899999988,"lng":-71.0936799},"southwest":{"lat":42.287366899999988,"lng":-71.137148799999991}},"LocationType":0,"Location":{"lat":42.3097365,"lng":-71.1151431},"Components":[{"LongName":"02130","ShortName":"02130","Types":[10]},{"LongName":"Jamaica Plain","ShortName":"Jamaica Plain","Types":[7,0]},{"LongName":"Boston","ShortName":"Boston","Types":[4,0]},{"LongName":"Suffolk County","ShortName":"Suffolk County","Types":[3,0]},{"LongName":"Massachusetts","ShortName":"MA","Types":[2,0]},{"LongName":"United States","ShortName":"US","Types":[1,0]}],"FormattedAddress":"Jamaica Plain, MA 02130, USA","Parent":{"PlaceId":"ChIJ6TarW9Sc44kR4nUWuotzEyI","Bounds":{"northeast":{"lat":42.4500959,"lng":-70.648072},"southwest":{"lat":42.22788,"lng":-71.191113}},"LocationType":0,"Location":{"lat":42.3522866,"lng":-71.0504229},"Components":[{"LongName":"Suffolk County","ShortName":"Suffolk County","Types":[3,0]},{"LongName":"Massachusetts","ShortName":"MA","Types":[2,0]},{"LongName":"United States","ShortName":"US","Types":[1,0]}],"FormattedAddress":"Suffolk County, MA, USA","Parent":{"PlaceId":"ChIJA9NWegR244kRF6B2phYlXis","Bounds":{"northeast":{"lat":43.082038,"lng":-70.5255671},"southwest":{"lat":41.7628401,"lng":-71.947663}},"LocationType":0,"Location":{"lat":42.7104806,"lng":-71.3824374},"Components":[{"LongName":"Boston-Cambridge-Quincy, MA-NH","ShortName":"Boston-Cambridge-Quincy, MA-NH","Types":[0]},{"LongName":"United States","ShortName":"US","Types":[1,0]}],"FormattedAddress":"Boston-Cambridge-Quincy, MA-NH, USA","Parent":{"PlaceId":"ChIJZ11RHIcL44kRFgTm6pE69b8","Bounds":{"northeast":{"lat":43.573012,"lng":-70.5255671},"southwest":{"lat":41.6245321,"lng":-71.8987166}},"LocationType":0,"Location":{"lat":42.5865746,"lng":-71.097317},"Components":[{"LongName":"Boston-Cambridge-Quincy, MA-NH","ShortName":"Boston-Cambridge-Quincy, MA-NH","Types":[0]},{"LongName":"United States","ShortName":"US","Types":[1,0]}],"FormattedAddress":"Boston-Cambridge-Quincy, MA-NH, USA","Parent":{"PlaceId":"ChIJQ-TFt5IL44kR1kcVhdMVrXg","Bounds":{"northeast":{"lat":43.573012,"lng":-70.3225219},"southwest":{"lat":41.5658509,"lng":-71.8987159}},"LocationType":0,"Location":{"lat":42.3600709,"lng":-71.0588305},"Components":[{"LongName":"Boston Metropolitan Area","ShortName":"Boston Metropolitan Area","Types":[0]},{"LongName":"United States","ShortName":"US","Types":[1,0]}],"FormattedAddress":"Boston Metropolitan Area, USA","Parent":{"PlaceId":"ChIJ_b9z6W1l44kRHA2DVTbQxkU","Bounds":{"northeast":{"lat":42.88679,"lng":-69.85886099999999},"southwest":{"lat":41.187053000000013,"lng":-73.5081419}},"LocationType":0,"Location":{"lat":42.4072107,"lng":-71.3824374},"Components":[{"LongName":"Massachusetts","ShortName":"MA","Types":[2,0,0,0]},{"LongName":"United States","ShortName":"US","Types":[1,0]}],"FormattedAddress":"Massachusetts, USA","Parent":{"PlaceId":"ChIJCzYy5IS16lQRQrfeQ5K5Oxw","Bounds":{"northeast":{"lat":71.5388001,"lng":-66.885417},"southwest":{"lat":18.7763,"lng":170.5957}},"LocationType":0,"Location":{"lat":0.0,"lng":0.0},"Components":[{"LongName":"United States","ShortName":"US","Types":[1,0]}],"FormattedAddress":"United States","Parent":null}}}}}}}}}},"ChIJ2eTYXCo82jARl89BiaAXC6g":{"PlaceId":"ChIJ2eTYXCo82jARl89BiaAXC6g","Bounds":{"northeast":{"lat":18.9221474,"lng":98.927675799999989},"southwest":{"lat":18.921014,"lng":98.9244707}},"LocationType":0,"Location":{"lat":0.0,"lng":0.0},"Components":[{"LongName":"1096","ShortName":"1096","Types":[8]},{"LongName":"Tambon Mae Raem","ShortName":"Tambon Mae Raem","Types":[4,0]},{"LongName":"Amphoe Mae Rim","ShortName":"Amphoe Mae Rim","Types":[3,0]},{"LongName":"Chang Wat Chiang Mai","ShortName":"จ.เชียงใหม่","Types":[2,0]},{"LongName":"Thailand","ShortName":"TH","Types":[1,0]},{"LongName":"50180","ShortName":"50180","Types":[10]}],"FormattedAddress":"1096 Tambon Mae Raem, Amphoe Mae Rim, Chang Wat Chiang Mai 50180, Thailand","Parent":{"PlaceId":"ChIJgeSnr2o_2jARYI6L-sVGAwQ","Bounds":{"northeast":{"lat":18.9790836,"lng":98.940649999999991},"southwest":{"lat":18.8319115,"lng":98.774888499999989}},"LocationType":0,"Location":{"lat":0.0,"lng":0.0},"Components":[{"LongName":"Mae Raem","ShortName":"Mae Raem","Types":[4,0]},{"LongName":"Mae Rim District","ShortName":"Mae Rim District","Types":[3,0]},{"LongName":"Chiang Mai","ShortName":"จ.เชียงใหม่","Types":[2,0]},{"LongName":"Thailand","ShortName":"TH","Types":[1,0]},{"LongName":"50180","ShortName":"50180","Types":[10]}],"FormattedAddress":"Mae Raem, Mae Rim District, Chiang Mai 50180, Thailand","Parent":{"PlaceId":"ChIJZ0ABw1E-2jAR8MX6KMlGAxw","Bounds":{"northeast":{"lat":19.0440441,"lng":99.0068441},"southwest":{"lat":18.83159,"lng":98.775933999999992}},"LocationType":0,"Location":{"lat":0.0,"lng":0.0},"Components":[{"LongName":"50180","ShortName":"50180","Types":[10]},{"LongName":"Chiang Mai","ShortName":"จ.เชียงใหม่","Types":[2,0]},{"LongName":"Thailand","ShortName":"TH","Types":[1,0]}],"FormattedAddress":"Chiang Mai 50180, Thailand","Parent":{"PlaceId":"ChIJw6Frnsk_2jARUG6K-sVGAwM","Bounds":{"northeast":{"lat":19.0763533,"lng":99.000065499999991},"southwest":{"lat":18.8319115,"lng":98.747478199999989}},"LocationType":0,"Location":{"lat":0.0,"lng":0.0},"Components":[{"LongName":"Mae Rim District","ShortName":"Mae Rim District","Types":[3,0]},{"LongName":"Chiang Mai","ShortName":"จ.เชียงใหม่","Types":[2,0]},{"LongName":"Thailand","ShortName":"TH","Types":[1,0]}],"FormattedAddress":"Mae Rim District, Chiang Mai, Thailand","Parent":{"PlaceId":"ChIJQXiZwsjM0DAR1AMlknbhaWo","Bounds":{"northeast":{"lat":20.1475012,"lng":99.5715955},"southwest":{"lat":17.2424831,"lng":98.0079447}},"LocationType":0,"Location":{"lat":0.0,"lng":0.0},"Components":[{"LongName":"Chiang Mai","ShortName":"จ.เชียงใหม่","Types":[2,0]},{"LongName":"Thailand","ShortName":"TH","Types":[1,0]}],"FormattedAddress":"Chiang Mai, Thailand","Parent":{"PlaceId":"ChIJsU1CR_eNTTARAuhXB4gs154","Bounds":{"northeast":{"lat":20.465143,"lng":105.636812},"southwest":{"lat":5.613038,"lng":97.343396}},"LocationType":0,"Location":{"lat":0.0,"lng":0.0},"Components":[{"LongName":"Thailand","ShortName":"TH","Types":[1,0]}],"FormattedAddress":"Thailand","Parent":null}}}}}},"ChIJ2zTN0Kc62jARFwfl_f30e6M":{"PlaceId":"ChIJ2zTN0Kc62jARFwfl_f30e6M","Bounds":{"northeast":{"lat":18.7826451,"lng":99.001830399999989},"southwest":{"lat":18.7826274,"lng":99.00121279999999}},"LocationType":0,"Location":{"lat":0.0,"lng":0.0},"Components":[{"LongName":"Anusan Sunthon Road","ShortName":"Anusan Sunthon Rd","Types":[8]},{"LongName":"Tambon Chang Khlan","ShortName":"Tambon Chang Khlan","Types":[0,5,6]},{"LongName":"Chiang Mai","ShortName":"Chiang Mai","Types":[4,0]},{"LongName":"Amphoe Mueang Chiang Mai","ShortName":"Amphoe Mueang Chiang Mai","Types":[3,0]},{"LongName":"Chang Wat Chiang Mai","ShortName":"จ.เชียงใหม่","Types":[2,0]},{"LongName":"Thailand","ShortName":"TH","Types":[1,0]},{"LongName":"50100","ShortName":"50100","Types":[10]}],"FormattedAddress":"Anusan Sunthon Rd, Tambon Chang Khlan, Amphoe Mueang Chiang Mai, Chang Wat Chiang Mai 50100, Thailand","Parent":{"PlaceId":"ChIJ5UE7-w4w2jARIIqL-sVGAwQ","Bounds":{"northeast":{"lat":18.7854468,"lng":99.00706439999999},"southwest":{"lat":18.7602196,"lng":98.990156599999992}},"LocationType":0,"Location":{"lat":0.0,"lng":0.0},"Components":[{"LongName":"Chang Khlan","ShortName":"Chang Khlan","Types":[0,5,6]},{"LongName":"Chiang Mai","ShortName":"Chiang Mai","Types":[4,0]},{"LongName":"Mueang Chiang Mai District","ShortName":"Mueang Chiang Mai District","Types":[3,0]},{"LongName":"Chiang Mai","ShortName":"จ.เชียงใหม่","Types":[2,0]},{"LongName":"Thailand","ShortName":"TH","Types":[1,0]}],"FormattedAddress":"Chang Khlan, Mueang Chiang Mai District, Chiang Mai, Thailand","Parent":{"PlaceId":"ChIJXW-7kH462jARZ0ObpXBi1Jg","Bounds":{"northeast":{"lat":18.8434085,"lng":99.0512218},"southwest":{"lat":18.7000955,"lng":98.86173269999999}},"LocationType":0,"Location":{"lat":0.0,"lng":0.0},"Components":[{"LongName":"Chiang Mai","ShortName":"Chiang Mai","Types":[4,0]},{"LongName":"Mueang Chiang Mai District","ShortName":"Mueang Chiang Mai District","Types":[3,0]},{"LongName":"Chiang Mai","ShortName":"จ.เชียงใหม่","Types":[2,0]},{"LongName":"Thailand","ShortName":"TH","Types":[1,0]}],"FormattedAddress":"Chiang Mai, Mueang Chiang Mai District, Chiang Mai, Thailand","Parent":{"PlaceId":"ChIJiY86XrM72jARgL76KMlGAxw","Bounds":{"northeast":{"lat":18.850341,"lng":99.017484},"southwest":{"lat":18.786697,"lng":98.894061999999991}},"LocationType":0,"Location":{"lat":0.0,"lng":0.0},"Components":[{"LongName":"50300","ShortName":"50300","Types":[10]},{"LongName":"Chiang Mai","ShortName":"จ.เชียงใหม่","Types":[2,0]},{"LongName":"Thailand","ShortName":"TH","Types":[1,0]}],"FormattedAddress":"Chiang Mai 50300, Thailand","Parent":{"PlaceId":"ChIJzzapQXc62jAR8G2K-sVGAwM","Bounds":{"northeast":{"lat":18.8782902,"lng":99.0512218},"southwest":{"lat":18.6957507,"lng":98.86173269999999}},"LocationType":0,"Location":{"lat":0.0,"lng":0.0},"Components":[{"LongName":"Mueang Chiang Mai District","ShortName":"Mueang Chiang Mai District","Types":[3,0]},{"LongName":"Chiang Mai","ShortName":"จ.เชียงใหม่","Types":[2,0]},{"LongName":"Thailand","ShortName":"TH","Types":[1,0]}],"FormattedAddress":"Mueang Chiang Mai District, Chiang Mai, Thailand","Parent":{"PlaceId":"ChIJQXiZwsjM0DAR1AMlknbhaWo","Bounds":{"northeast":{"lat":20.1475012,"lng":99.5715955},"southwest":{"lat":17.2424831,"lng":98.0079447}},"LocationType":0,"Location":{"lat":0.0,"lng":0.0},"Components":[{"LongName":"Chiang Mai","ShortName":"จ.เชียงใหม่","Types":[2,0]},{"LongName":"Thailand","ShortName":"TH","Types":[1,0]}],"FormattedAddress":"Chiang Mai, Thailand","Parent":{"PlaceId":"ChIJsU1CR_eNTTARAuhXB4gs154","Bounds":{"northeast":{"lat":20.465143,"lng":105.636812},"southwest":{"lat":5.613038,"lng":97.343396}},"LocationType":0,"Location":{"lat":0.0,"lng":0.0},"Components":[{"LongName":"Thailand","ShortName":"TH","Types":[1,0]}],"FormattedAddress":"Thailand","Parent":null}}}}}}},"ChIJ328KAiE72jARKGGLrhuUnaQ":{"PlaceId":"ChIJ328KAiE72jARKGGLrhuUnaQ","Bounds":{"northeast":{"lat":0.0,"lng":0.0},"southwest":{"lat":0.0,"lng":0.0}},"LocationType":0,"Location":{"lat":0.0,"lng":0.0},"Components":[{"LongName":"208","ShortName":"208","Types":[9]},{"LongName":"Soi Pa Tan","ShortName":"Soi Pa Tan","Types":[8]},{"LongName":"Tambon San Phi Suea","ShortName":"Tambon San Phi Suea","Types":[4,0]},{"LongName":"Amphoe Mueang Chiang Mai","ShortName":"Amphoe Mueang Chiang Mai","Types":[3,0]},{"LongName":"Chang Wat Chiang Mai","ShortName":"จ.เชียงใหม่","Types":[2,0]},{"LongName":"Thailand","ShortName":"TH","Types":[1,0]},{"LongName":"50300","ShortName":"50300","Types":[10]}],"FormattedAddress":"208 Soi Pa Tan, Tambon San Phi Suea, Amphoe Mueang Chiang Mai, Chang Wat Chiang Mai 50300, Thailand","Parent":{"PlaceId":"ChIJGanopj872jAR0IqL-sVGAwQ","Bounds":{"northeast":{"lat":18.8782902,"lng":99.0124641},"southwest":{"lat":18.8204426,"lng":98.9742138}},"LocationType":0,"Location":{"lat":0.0,"lng":0.0},"Components":[{"LongName":"San Phi Suea","ShortName":"San Phi Suea","Types":[4,0]},{"LongName":"Mueang Chiang Mai District","ShortName":"Mueang Chiang Mai District","Types":[3,0]},{"LongName":"Chiang Mai","ShortName":"จ.เชียงใหม่","Types":[2,0]},{"LongName":"Thailand","ShortName":"TH","Types":[1,0]}],"FormattedAddress":"San Phi Suea, Mueang Chiang Mai District, Chiang Mai, Thailand","Parent":{"PlaceId":"ChIJiY86XrM72jARgL76KMlGAxw","Bounds":{"northeast":{"lat":18.850341,"lng":99.017484},"southwest":{"lat":18.786697,"lng":98.894061999999991}},"LocationType":0,"Location":{"lat":0.0,"lng":0.0},"Components":[{"LongName":"50300","ShortName":"50300","Types":[10]},{"LongName":"Chiang Mai","ShortName":"จ.เชียงใหม่","Types":[2,0]},{"LongName":"Thailand","ShortName":"TH","Types":[1,0]}],"FormattedAddress":"Chiang Mai 50300, Thailand","Parent":{"PlaceId":"ChIJzzapQXc62jAR8G2K-sVGAwM","Bounds":{"northeast":{"lat":18.8782902,"lng":99.0512218},"southwest":{"lat":18.6957507,"lng":98.86173269999999}},"LocationType":0,"Location":{"lat":0.0,"lng":0.0},"Components":[{"LongName":"Mueang Chiang Mai District","ShortName":"Mueang Chiang Mai District","Types":[3,0]},{"LongName":"Chiang Mai","ShortName":"จ.เชียงใหม่","Types":[2,0]},{"LongName":"Thailand","ShortName":"TH","Types":[1,0]}],"FormattedAddress":"Mueang Chiang Mai District, Chiang Mai, Thailand","Parent":{"PlaceId":"ChIJQXiZwsjM0DAR1AMlknbhaWo","Bounds":{"northeast":{"lat":20.1475012,"lng":99.5715955},"southwest":{"lat":17.2424831,"lng":98.0079447}},"LocationType":0,"Location":{"lat":0.0,"lng":0.0},"Components":[{"LongName":"Chiang Mai","ShortName":"จ.เชียงใหม่","Types":[2,0]},{"LongName":"Thailand","ShortName":"TH","Types":[1,0]}],"FormattedAddress":"Chiang Mai, Thailand","Parent":{"PlaceId":"ChIJsU1CR_eNTTARAuhXB4gs154","Bounds":{"northeast":{"lat":20.465143,"lng":105.636812},"southwest":{"lat":5.613038,"lng":97.343396}},"LocationType":0,"Location":{"lat":0.0,"lng":0.0},"Components":[{"LongName":"Thailand","ShortName":"TH","Types":[1,0]}],"FormattedAddress":"Thailand","Parent":null}}}}}},"ChIJGanopj872jAR0IqL-sVGAwQ":{"PlaceId":"ChIJGanopj872jAR0IqL-sVGAwQ","Bounds":{"northeast":{"lat":18.8782902,"lng":99.0124641},"southwest":{"lat":18.8204426,"lng":98.9742138}},"LocationType":0,"Location":{"lat":0.0,"lng":0.0},"Components":[{"LongName":"San Phi Suea","ShortName":"San Phi Suea","Types":[4,0]},{"LongName":"Mueang Chiang Mai District","ShortName":"Mueang Chiang Mai District","Types":[3,0]},{"LongName":"Chiang Mai","ShortName":"จ.เชียงใหม่","Types":[2,0]},{"LongName":"Thailand","ShortName":"TH","Types":[1,0]}],"FormattedAddress":"San Phi Suea, Mueang Chiang Mai District, Chiang Mai, Thailand","Parent":{"PlaceId":"ChIJiY86XrM72jARgL76KMlGAxw","Bounds":{"northeast":{"lat":18.850341,"lng":99.017484},"southwest":{"lat":18.786697,"lng":98.894061999999991}},"LocationType":0,"Location":{"lat":0.0,"lng":0.0},"Components":[{"LongName":"50300","ShortName":"50300","Types":[10]},{"LongName":"Chiang Mai","ShortName":"จ.เชียงใหม่","Types":[2,0]},{"LongName":"Thailand","ShortName":"TH","Types":[1,0]}],"FormattedAddress":"Chiang Mai 50300, Thailand","Parent":{"PlaceId":"ChIJzzapQXc62jAR8G2K-sVGAwM","Bounds":{"northeast":{"lat":18.8782902,"lng":99.0512218},"southwest":{"lat":18.6957507,"lng":98.86173269999999}},"LocationType":0,"Location":{"lat":0.0,"lng":0.0},"Components":[{"LongName":"Mueang Chiang Mai District","ShortName":"Mueang Chiang Mai District","Types":[3,0]},{"LongName":"Chiang Mai","ShortName":"จ.เชียงใหม่","Types":[2,0]},{"LongName":"Thailand","ShortName":"TH","Types":[1,0]}],"FormattedAddress":"Mueang Chiang Mai District, Chiang Mai, Thailand","Parent":{"PlaceId":"ChIJQXiZwsjM0DAR1AMlknbhaWo","Bounds":{"northeast":{"lat":20.1475012,"lng":99.5715955},"southwest":{"lat":17.2424831,"lng":98.0079447}},"LocationType":0,"Location":{"lat":0.0,"lng":0.0},"Components":[{"LongName":"Chiang Mai","ShortName":"จ.เชียงใหม่","Types":[2,0]},{"LongName":"Thailand","ShortName":"TH","Types":[1,0]}],"FormattedAddress":"Chiang Mai, Thailand","Parent":{"PlaceId":"ChIJsU1CR_eNTTARAuhXB4gs154","Bounds":{"northeast":{"lat":20.465143,"lng":105.636812},"southwest":{"lat":5.613038,"lng":97.343396}},"LocationType":0,"Location":{"lat":0.0,"lng":0.0},"Components":[{"LongName":"Thailand","ShortName":"TH","Types":[1,0]}],"FormattedAddress":"Thailand","Parent":null}}}}},"ChIJ34mySIBw44kRSw1L2tg6h4I":{"PlaceId":"ChIJ34mySIBw44kRSw1L2tg6h4I","Bounds":{"northeast":{"lat":42.3530317,"lng":-71.051805899999991},"southwest":{"lat":42.352450999999988,"lng":-71.052347}},"LocationType":0,"Location":{"lat":0.0,"lng":0.0},"Components":[{"LongName":"Harborwalk","ShortName":"Harborwalk","Types":[8]},{"LongName":"Waterfront","ShortName":"Waterfront","Types":[7,0]},{"LongName":"Boston","ShortName":"Boston","Types":[4,0]},{"LongName":"Suffolk County","ShortName":"Suffolk County","Types":[3,0]},{"LongName":"Massachusetts","ShortName":"MA","Types":[2,0]},{"LongName":"United States","ShortName":"US","Types":[1,0]},{"LongName":"02210","ShortName":"02210","Types":[10]}],"FormattedAddress":"Harborwalk, Boston, MA 02210, USA","Parent":{"PlaceId":"ChIJGzE9DS1l44kRoOhiASS_fHg","Bounds":{"northeast":{"lat":42.400819899999988,"lng":-70.749455},"southwest":{"lat":42.22788,"lng":-71.191113}},"LocationType":0,"Location":{"lat":42.3600825,"lng":-71.0588801},"Components":[{"LongName":"Boston","ShortName":"Boston","Types":[4,0]},{"LongName":"Suffolk County","ShortName":"Suffolk County","Types":[3,0]},{"LongName":"Massachusetts","ShortName":"MA","Types":[2,0]},{"LongName":"United States","ShortName":"US","Types":[1,0]}],"FormattedAddress":"Boston, MA, USA","Parent":{"PlaceId":"ChIJU-wQg2l544kR0Aqrq285GNg","Bounds":{"northeast":{"lat":42.331939899999988,"lng":-71.0936799},"southwest":{"lat":42.287366899999988,"lng":-71.137148799999991}},"LocationType":0,"Location":{"lat":42.3097365,"lng":-71.1151431},"Components":[{"LongName":"02130","ShortName":"02130","Types":[10]},{"LongName":"Jamaica Plain","ShortName":"Jamaica Plain","Types":[7,0]},{"LongName":"Boston","ShortName":"Boston","Types":[4,0]},{"LongName":"Suffolk County","ShortName":"Suffolk County","Types":[3,0]},{"LongName":"Massachusetts","ShortName":"MA","Types":[2,0]},{"LongName":"United States","ShortName":"US","Types":[1,0]}],"FormattedAddress":"Jamaica Plain, MA 02130, USA","Parent":{"PlaceId":"ChIJ6TarW9Sc44kR4nUWuotzEyI","Bounds":{"northeast":{"lat":42.4500959,"lng":-70.648072},"southwest":{"lat":42.22788,"lng":-71.191113}},"LocationType":0,"Location":{"lat":42.3522866,"lng":-71.0504229},"Components":[{"LongName":"Suffolk County","ShortName":"Suffolk County","Types":[3,0]},{"LongName":"Massachusetts","ShortName":"MA","Types":[2,0]},{"LongName":"United States","ShortName":"US","Types":[1,0]}],"FormattedAddress":"Suffolk County, MA, USA","Parent":{"PlaceId":"ChIJA9NWegR244kRF6B2phYlXis","Bounds":{"northeast":{"lat":43.082038,"lng":-70.5255671},"southwest":{"lat":41.7628401,"lng":-71.947663}},"LocationType":0,"Location":{"lat":42.7104806,"lng":-71.3824374},"Components":[{"LongName":"Boston-Cambridge-Quincy, MA-NH","ShortName":"Boston-Cambridge-Quincy, MA-NH","Types":[0]},{"LongName":"United States","ShortName":"US","Types":[1,0]}],"FormattedAddress":"Boston-Cambridge-Quincy, MA-NH, USA","Parent":{"PlaceId":"ChIJZ11RHIcL44kRFgTm6pE69b8","Bounds":{"northeast":{"lat":43.573012,"lng":-70.5255671},"southwest":{"lat":41.6245321,"lng":-71.8987166}},"LocationType":0,"Location":{"lat":42.5865746,"lng":-71.097317},"Components":[{"LongName":"Boston-Cambridge-Quincy, MA-NH","ShortName":"Boston-Cambridge-Quincy, MA-NH","Types":[0]},{"LongName":"United States","ShortName":"US","Types":[1,0]}],"FormattedAddress":"Boston-Cambridge-Quincy, MA-NH, USA","Parent":{"PlaceId":"ChIJQ-TFt5IL44kR1kcVhdMVrXg","Bounds":{"northeast":{"lat":43.573012,"lng":-70.3225219},"southwest":{"lat":41.5658509,"lng":-71.8987159}},"LocationType":0,"Location":{"lat":42.3600709,"lng":-71.0588305},"Components":[{"LongName":"Boston Metropolitan Area","ShortName":"Boston Metropolitan Area","Types":[0]},{"LongName":"United States","ShortName":"US","Types":[1,0]}],"FormattedAddress":"Boston Metropolitan Area, USA","Parent":{"PlaceId":"ChIJ_b9z6W1l44kRHA2DVTbQxkU","Bounds":{"northeast":{"lat":42.88679,"lng":-69.85886099999999},"southwest":{"lat":41.187053000000013,"lng":-73.5081419}},"LocationType":0,"Location":{"lat":42.4072107,"lng":-71.3824374},"Components":[{"LongName":"Massachusetts","ShortName":"MA","Types":[2,0,0,0]},{"LongName":"United States","ShortName":"US","Types":[1,0]}],"FormattedAddress":"Massachusetts, USA","Parent":{"PlaceId":"ChIJCzYy5IS16lQRQrfeQ5K5Oxw","Bounds":{"northeast":{"lat":71.5388001,"lng":-66.885417},"southwest":{"lat":18.7763,"lng":170.5957}},"LocationType":0,"Location":{"lat":0.0,"lng":0.0},"Components":[{"LongName":"United States","ShortName":"US","Types":[1,0]}],"FormattedAddress":"United States","Parent":null}}}}}}}}},"ChIJ525Q15pMJzQROdUobUHyThU":{"PlaceId":"ChIJ525Q15pMJzQROdUobUHyThU","Bounds":{"northeast":{"lat":28.1930202,"lng":112.8987404},"southwest":{"lat":28.1898547,"lng":112.8944872}},"LocationType":0,"Location":{"lat":0.0,"lng":0.0},"Components":[{"LongName":"Huan Hu Lu","ShortName":"Huan Hu Lu","Types":[8]},{"LongName":"Yuelu Qu","ShortName":"Yuelu Qu","Types":[0,5,6]},{"LongName":"Changsha Shi","ShortName":"Changsha Shi","Types":[4,0]},{"LongName":"Hunan Sheng","ShortName":"Hunan Sheng","Types":[2,0]},{"LongName":"China","ShortName":"CN","Types":[1,0]}],"FormattedAddress":"Huan Hu Lu, Yuelu Qu, Changsha Shi, Hunan Sheng, China","Parent":{"PlaceId":"ChIJab1VSXdLJzQRAAnNmGh_bts","Bounds":{"northeast":{"lat":28.2753049,"lng":112.9718036},"southwest":{"lat":28.1194119,"lng":112.8449426}},"LocationType":0,"Location":{"lat":0.0,"lng":0.0},"Components":[{"LongName":"Yuelu","ShortName":"Yuelu","Types":[0,5,6]},{"LongName":"Changsha","ShortName":"Changsha","Types":[4,0]},{"LongName":"Hunan","ShortName":"Hunan","Types":[2,0]},{"LongName":"China","ShortName":"CN","Types":[1,0]}],"FormattedAddress":"Yuelu, Changsha, Hunan, China","Parent":{"PlaceId":"ChIJxWQcnvM1JzQRgKbxoZy75bE","Bounds":{"northeast":{"lat":28.6616127,"lng":114.2612647},"southwest":{"lat":27.8480727,"lng":111.8962567}},"LocationType":0,"Location":{"lat":0.0,"lng":0.0},"Components":[{"LongName":"Changsha","ShortName":"Changsha","Types":[4,0]},{"LongName":"Hunan","ShortName":"Hunan","Types":[2,0]},{"LongName":"China","ShortName":"CN","Types":[1,0]}],"FormattedAddress":"Changsha, Hunan, China","Parent":{"PlaceId":"ChIJTTiHaRi6IDQR5Syu5AuRIcw","Bounds":{"northeast":{"lat":30.1263631,"lng":114.2612647},"southwest":{"lat":24.6363233,"lng":108.7908414}},"LocationType":0,"Location":{"lat":0.0,"lng":0.0},"Components":[{"LongName":"Hunan","ShortName":"Hunan","Types":[2,0]},{"LongName":"China","ShortName":"CN","Types":[1,0]}],"FormattedAddress":"Hunan, China","Parent":{"PlaceId":"ChIJwULG5WSOUDERbzafNHyqHZU","Bounds":{"northeast":{"lat":53.560973999999987,"lng":134.7728099},"southwest":{"lat":17.9996,"lng":73.4994136}},"LocationType":0,"Location":{"lat":0.0,"lng":0.0},"Components":[{"LongName":"China","ShortName":"CN","Types":[1,0]}],"FormattedAddress":"China","Parent":null}}}}},"ChIJ53VgZHyn_IkRzYrE93iDfDs":{"PlaceId":"ChIJ53VgZHyn_IkRzYrE93iDfDs","Bounds":{"northeast":{"lat":42.0513876,"lng":-70.1843811},"southwest":{"lat":42.0510464,"lng":-70.1851184}},"LocationType":0,"Location":{"lat":0.0,"lng":0.0},"Components":[{"LongName":"MacMillan Pier","ShortName":"MacMillan Pier","Types":[8]},{"LongName":"Provincetown","ShortName":"Provincetown","Types":[4,0]},{"LongName":"Barnstable County","ShortName":"Barnstable County","Types":[3,0]},{"LongName":"Massachusetts","ShortName":"MA","Types":[2,0]},{"LongName":"United States","ShortName":"US","Types":[1,0]},{"LongName":"02657","ShortName":"02657","Types":[10]}],"FormattedAddress":"MacMillan Pier, Provincetown, MA 02657, USA","Parent":{"PlaceId":"ChIJIciDz4Cn_IkR2l7w4DqG0tg","Bounds":{"northeast":{"lat":42.085609,"lng":-70.1467049},"southwest":{"lat":42.0170199,"lng":-70.250188}},"LocationType":0,"Location":{"lat":0.0,"lng":0.0},"Components":[{"LongName":"Provincetown","ShortName":"Provincetown","Types":[4,0]},{"LongName":"Barnstable County","ShortName":"Barnstable County","Types":[3,0]},{"LongName":"Massachusetts","ShortName":"MA","Types":[2,0]},{"LongName":"United States","ShortName":"US","Types":[1,0]}],"FormattedAddress":"Provincetown, MA, USA","Parent":{"PlaceId":"ChIJ1Rjo9XCn_IkRPFIFBOcsV7s","Bounds":{"northeast":{"lat":42.085609,"lng":-70.0191559},"southwest":{"lat":41.985825899999988,"lng":-70.250188}},"LocationType":0,"Location":{"lat":0.0,"lng":0.0},"Components":[{"LongName":"02657","ShortName":"02657","Types":[10]},{"LongName":"Provincetown","ShortName":"Provincetown","Types":[4,0]},{"LongName":"Barnstable County","ShortName":"Barnstable County","Types":[3,0]},{"LongName":"Massachusetts","ShortName":"MA","Types":[2,0]},{"LongName":"United States","ShortName":"US","Types":[1,0]}],"FormattedAddress":"Provincetown, MA 02657, USA","Parent":{"PlaceId":"ChIJNznEmus2-4kR1XIbb_9HhCY","Bounds":{"northeast":{"lat":42.134515,"lng":-69.85886099999999},"southwest":{"lat":41.4641101,"lng":-70.7584639}},"LocationType":0,"Location":{"lat":0.0,"lng":0.0},"Components":[{"LongName":"Barnstable County","ShortName":"Barnstable County","Types":[3,0]},{"LongName":"Massachusetts","ShortName":"MA","Types":[2,0]},{"LongName":"United States","ShortName":"US","Types":[1,0]}],"FormattedAddress":"Barnstable County, MA, USA","Parent":{"PlaceId":"ChIJ_b9z6W1l44kRHA2DVTbQxkU","Bounds":{"northeast":{"lat":42.88679,"lng":-69.85886099999999},"southwest":{"lat":41.187053000000013,"lng":-73.5081419}},"LocationType":0,"Location":{"lat":42.4072107,"lng":-71.3824374},"Components":[{"LongName":"Massachusetts","ShortName":"MA","Types":[2,0,0,0]},{"LongName":"United States","ShortName":"US","Types":[1,0]}],"FormattedAddress":"Massachusetts, USA","Parent":{"PlaceId":"ChIJCzYy5IS16lQRQrfeQ5K5Oxw","Bounds":{"northeast":{"lat":71.5388001,"lng":-66.885417},"southwest":{"lat":18.7763,"lng":170.5957}},"LocationType":0,"Location":{"lat":0.0,"lng":0.0},"Components":[{"LongName":"United States","ShortName":"US","Types":[1,0]}],"FormattedAddress":"United States","Parent":null}}}}}},"ChIJ5d_4MzVvLjERLlmbAZhLZMg":{"PlaceId":"ChIJ5d_4MzVvLjERLlmbAZhLZMg","Bounds":{"northeast":{"lat":20.3204218,"lng":103.0163934},"southwest":{"lat":20.3148937,"lng":103.01253319999999}},"LocationType":0,"Location":{"lat":0.0,"lng":0.0},"Components":[{"LongName":"1C","ShortName":"1C","Types":[8]},{"LongName":"Luang Prabang Province","ShortName":"Luang Prabang Province","Types":[2,0]},{"LongName":"Laos","ShortName":"LA","Types":[1,0]}],"FormattedAddress":"1C, Laos","Parent":{"PlaceId":"ChIJ-1Vy5szvLjERek7q3fgwKxo","Bounds":{"northeast":{"lat":21.145014,"lng":103.402969},"southwest":{"lat":19.0528441,"lng":101.710163}},"LocationType":0,"Location":{"lat":0.0,"lng":0.0},"Components":[{"LongName":"Luang Prabang Province","ShortName":"Luang Prabang Province","Types":[2,0]},{"LongName":"Laos","ShortName":"LA","Types":[1,0]}],"FormattedAddress":"Luang Prabang Province, Laos","Parent":{"PlaceId":"ChIJiUWCsFeQFDERgc2ZH0iSxQ4","Bounds":{"northeast":{"lat":22.502872,"lng":107.69483},"southwest":{"lat":13.90972,"lng":100.0832139}},"LocationType":0,"Location":{"lat":0.0,"lng":0.0},"Components":[{"LongName":"Laos","ShortName":"LA","Types":[1,0]}],"FormattedAddress":"Laos","Parent":null}}},"ChIJ5QZ4ZpMGmzYR5BVKK0HT82A":{"PlaceId":"ChIJ5QZ4ZpMGmzYR5BVKK0HT82A","Bounds":{"northeast":{"lat":29.3485827,"lng":110.4723477},"southwest":{"lat":29.3427952,"lng":110.4408599}},"LocationType":0,"Location":{"lat":0.0,"lng":0.0},"Components":[{"LongName":"Unnamed Road","ShortName":"Unnamed Road","Types":[8]},{"LongName":"Wulingyuan Qu","ShortName":"Wulingyuan Qu","Types":[0,5,6]},{"LongName":"Zhangjiajie Shi","ShortName":"Zhangjiajie Shi","Types":[4,0]},{"LongName":"Hunan Sheng","ShortName":"Hunan Sheng","Types":[2,0]},{"LongName":"China","ShortName":"CN","Types":[1,0]},{"LongName":"427400","ShortName":"427400","Types":[10]}],"FormattedAddress":"Unnamed Road, Wulingyuan Qu, Zhangjiajie Shi, Hunan Sheng, China, 427400","Parent":{"PlaceId":"ChIJK_Tz4ssImzYRdkefb1n5ByI","Bounds":{"northeast":{"lat":29.4508014,"lng":110.695913},"southwest":{"lat":29.216957399999991,"lng":110.3077327}},"LocationType":0,"Location":{"lat":0.0,"lng":0.0},"Components":[{"LongName":"Wulingyuan","ShortName":"Wulingyuan","Types":[0,5,6]},{"LongName":"Zhangjiajie","ShortName":"Zhangjiajie","Types":[4,0]},{"LongName":"Hunan","ShortName":"Hunan","Types":[2,0]},{"LongName":"China","ShortName":"CN","Types":[1,0]}],"FormattedAddress":"Wulingyuan, Zhangjiajie, Hunan, China","Parent":{"PlaceId":"ChIJmVW2gyEGmzYRVpDCIF2LkGE","Bounds":{"northeast":{"lat":29.7896781,"lng":111.337528},"southwest":{"lat":28.874109,"lng":109.7012344}},"LocationType":0,"Location":{"lat":0.0,"lng":0.0},"Components":[{"LongName":"Zhangjiajie","ShortName":"Zhangjiajie","Types":[4,0]},{"LongName":"Hunan","ShortName":"Hunan","Types":[2,0]},{"LongName":"China","ShortName":"CN","Types":[1,0]}],"FormattedAddress":"Zhangjiajie, Hunan, China","Parent":{"PlaceId":"ChIJxc-IIDAHmzYRRr5F-17B82g","Bounds":{"northeast":{"lat":29.3407619,"lng":110.5349534},"southwest":{"lat":29.2903884,"lng":110.4262089}},"LocationType":0,"Location":{"lat":0.0,"lng":0.0},"Components":[{"LongName":"427401","ShortName":"427401","Types":[10]},{"LongName":"Wulingyuan","ShortName":"Wulingyuan","Types":[0,5,6]},{"LongName":"Zhangjiajie","ShortName":"Zhangjiajie","Types":[4,0]},{"LongName":"Hunan","ShortName":"Hunan","Types":[2,0]},{"LongName":"China","ShortName":"CN","Types":[1,0]}],"FormattedAddress":"Wulingyuan, Zhangjiajie, Hunan, China, 427401","Parent":{"PlaceId":"ChIJ0Weh48sImzYR0qAIWH3M4f8","Bounds":{"northeast":{"lat":29.4750259,"lng":110.5692178},"southwest":{"lat":29.1232154,"lng":110.3308813}},"LocationType":0,"Location":{"lat":0.0,"lng":0.0},"Components":[{"LongName":"427400","ShortName":"427400","Types":[10]},{"LongName":"Wulingyuan","ShortName":"Wulingyuan","Types":[0,5,6]},{"LongName":"Zhangjiajie","ShortName":"Zhangjiajie","Types":[4,0]},{"LongName":"Hunan","ShortName":"Hunan","Types":[2,0]},{"LongName":"China","ShortName":"CN","Types":[1,0]}],"FormattedAddress":"Wulingyuan, Zhangjiajie, Hunan, China, 427400","Parent":{"PlaceId":"ChIJTTiHaRi6IDQR5Syu5AuRIcw","Bounds":{"northeast":{"lat":30.1263631,"lng":114.2612647},"southwest":{"lat":24.6363233,"lng":108.7908414}},"LocationType":0,"Location":{"lat":0.0,"lng":0.0},"Components":[{"LongName":"Hunan","ShortName":"Hunan","Types":[2,0]},{"LongName":"China","ShortName":"CN","Types":[1,0]}],"FormattedAddress":"Hunan, China","Parent":{"PlaceId":"ChIJwULG5WSOUDERbzafNHyqHZU","Bounds":{"northeast":{"lat":53.560973999999987,"lng":134.7728099},"southwest":{"lat":17.9996,"lng":73.4994136}},"LocationType":0,"Location":{"lat":0.0,"lng":0.0},"Components":[{"LongName":"China","ShortName":"CN","Types":[1,0]}],"FormattedAddress":"China","Parent":null}}}}}}},"ChIJ61XM6xF644kROPvMuyKk7Ow":{"PlaceId":"ChIJ61XM6xF644kROPvMuyKk7Ow","Bounds":{"northeast":{"lat":42.3460551,"lng":-71.080334},"southwest":{"lat":42.3451836,"lng":-71.081488999999991}},"LocationType":0,"Location":{"lat":0.0,"lng":0.0},"Components":[{"LongName":"120","ShortName":"120","Types":[9]},{"LongName":"Huntington Avenue","ShortName":"Huntington Ave","Types":[8]},{"LongName":"Prudential / St. Botolph","ShortName":"Prudential / St. Botolph","Types":[7,0]},{"LongName":"Boston","ShortName":"Boston","Types":[4,0]},{"LongName":"Suffolk County","ShortName":"Suffolk County","Types":[3,0]},{"LongName":"Massachusetts","ShortName":"MA","Types":[2,0]},{"LongName":"United States","ShortName":"US","Types":[1,0]},{"LongName":"02116","ShortName":"02116","Types":[10]},{"LongName":"5730","ShortName":"5730","Types":[11]}],"FormattedAddress":"120 Huntington Ave, Boston, MA 02116, USA","Parent":{"PlaceId":"EioyNjUtMjc3IFcgTmV3dG9uIFN0LCBCb3N0b24sIE1BIDAyMTE2LCBVU0E","Bounds":{"northeast":{"lat":42.3453407,"lng":-71.0812682},"southwest":{"lat":42.3450534,"lng":-71.0816931}},"LocationType":0,"Location":{"lat":0.0,"lng":0.0},"Components":[{"LongName":"265-277","ShortName":"265-277","Types":[9]},{"LongName":"West Newton Street","ShortName":"W Newton St","Types":[8]},{"LongName":"Prudential / St. Botolph","ShortName":"Prudential / St. Botolph","Types":[7,0]},{"LongName":"Boston","ShortName":"Boston","Types":[4,0]},{"LongName":"Suffolk County","ShortName":"Suffolk County","Types":[3,0]},{"LongName":"Massachusetts","ShortName":"MA","Types":[2,0]},{"LongName":"United States","ShortName":"US","Types":[1,0]},{"LongName":"02116","ShortName":"02116","Types":[10]}],"FormattedAddress":"265-277 W Newton St, Boston, MA 02116, USA","Parent":{"PlaceId":"ChIJx-iOBw5644kR6Dyx_JhHqQ0","Bounds":{"northeast":{"lat":42.350416,"lng":-71.0723761},"southwest":{"lat":42.341597,"lng":-71.085495999999992}},"LocationType":0,"Location":{"lat":0.0,"lng":0.0},"Components":[{"LongName":"Prudential / St. Botolph","ShortName":"Prudential / St. Botolph","Types":[7,0]},{"LongName":"Boston","ShortName":"Boston","Types":[4,0]},{"LongName":"Suffolk County","ShortName":"Suffolk County","Types":[3,0]},{"LongName":"Massachusetts","ShortName":"MA","Types":[2,0]},{"LongName":"United States","ShortName":"US","Types":[1,0]}],"FormattedAddress":"Prudential / St. Botolph, Boston, MA, USA","Parent":{"PlaceId":"ChIJsfUV-A5644kRxFubWZLMo7w","Bounds":{"northeast":{"lat":42.356983,"lng":-71.070289899999992},"southwest":{"lat":42.341597,"lng":-71.0932962}},"LocationType":0,"Location":{"lat":0.0,"lng":0.0},"Components":[{"LongName":"Back Bay","ShortName":"Back Bay","Types":[7,0]},{"LongName":"Boston","ShortName":"Boston","Types":[4,0]},{"LongName":"Suffolk County","ShortName":"Suffolk County","Types":[3,0]},{"LongName":"Massachusetts","ShortName":"MA","Types":[2,0]},{"LongName":"United States","ShortName":"US","Types":[1,0]}],"FormattedAddress":"Back Bay, Boston, MA, USA","Parent":{"PlaceId":"ChIJGzE9DS1l44kRoOhiASS_fHg","Bounds":{"northeast":{"lat":42.400819899999988,"lng":-70.749455},"southwest":{"lat":42.22788,"lng":-71.191113}},"LocationType":0,"Location":{"lat":42.3600825,"lng":-71.0588801},"Components":[{"LongName":"Boston","ShortName":"Boston","Types":[4,0]},{"LongName":"Suffolk County","ShortName":"Suffolk County","Types":[3,0]},{"LongName":"Massachusetts","ShortName":"MA","Types":[2,0]},{"LongName":"United States","ShortName":"US","Types":[1,0]}],"FormattedAddress":"Boston, MA, USA","Parent":{"PlaceId":"ChIJU-wQg2l544kR0Aqrq285GNg","Bounds":{"northeast":{"lat":42.331939899999988,"lng":-71.0936799},"southwest":{"lat":42.287366899999988,"lng":-71.137148799999991}},"LocationType":0,"Location":{"lat":42.3097365,"lng":-71.1151431},"Components":[{"LongName":"02130","ShortName":"02130","Types":[10]},{"LongName":"Jamaica Plain","ShortName":"Jamaica Plain","Types":[7,0]},{"LongName":"Boston","ShortName":"Boston","Types":[4,0]},{"LongName":"Suffolk County","ShortName":"Suffolk County","Types":[3,0]},{"LongName":"Massachusetts","ShortName":"MA","Types":[2,0]},{"LongName":"United States","ShortName":"US","Types":[1,0]}],"FormattedAddress":"Jamaica Plain, MA 02130, USA","Parent":{"PlaceId":"ChIJ6TarW9Sc44kR4nUWuotzEyI","Bounds":{"northeast":{"lat":42.4500959,"lng":-70.648072},"southwest":{"lat":42.22788,"lng":-71.191113}},"LocationType":0,"Location":{"lat":42.3522866,"lng":-71.0504229},"Components":[{"LongName":"Suffolk County","ShortName":"Suffolk County","Types":[3,0]},{"LongName":"Massachusetts","ShortName":"MA","Types":[2,0]},{"LongName":"United States","ShortName":"US","Types":[1,0]}],"FormattedAddress":"Suffolk County, MA, USA","Parent":{"PlaceId":"ChIJA9NWegR244kRF6B2phYlXis","Bounds":{"northeast":{"lat":43.082038,"lng":-70.5255671},"southwest":{"lat":41.7628401,"lng":-71.947663}},"LocationType":0,"Location":{"lat":42.7104806,"lng":-71.3824374},"Components":[{"LongName":"Boston-Cambridge-Quincy, MA-NH","ShortName":"Boston-Cambridge-Quincy, MA-NH","Types":[0]},{"LongName":"United States","ShortName":"US","Types":[1,0]}],"FormattedAddress":"Boston-Cambridge-Quincy, MA-NH, USA","Parent":{"PlaceId":"ChIJZ11RHIcL44kRFgTm6pE69b8","Bounds":{"northeast":{"lat":43.573012,"lng":-70.5255671},"southwest":{"lat":41.6245321,"lng":-71.8987166}},"LocationType":0,"Location":{"lat":42.5865746,"lng":-71.097317},"Components":[{"LongName":"Boston-Cambridge-Quincy, MA-NH","ShortName":"Boston-Cambridge-Quincy, MA-NH","Types":[0]},{"LongName":"United States","ShortName":"US","Types":[1,0]}],"FormattedAddress":"Boston-Cambridge-Quincy, MA-NH, USA","Parent":{"PlaceId":"ChIJQ-TFt5IL44kR1kcVhdMVrXg","Bounds":{"northeast":{"lat":43.573012,"lng":-70.3225219},"southwest":{"lat":41.5658509,"lng":-71.8987159}},"LocationType":0,"Location":{"lat":42.3600709,"lng":-71.0588305},"Components":[{"LongName":"Boston Metropolitan Area","ShortName":"Boston Metropolitan Area","Types":[0]},{"LongName":"United States","ShortName":"US","Types":[1,0]}],"FormattedAddress":"Boston Metropolitan Area, USA","Parent":{"PlaceId":"ChIJ_b9z6W1l44kRHA2DVTbQxkU","Bounds":{"northeast":{"lat":42.88679,"lng":-69.85886099999999},"southwest":{"lat":41.187053000000013,"lng":-73.5081419}},"LocationType":0,"Location":{"lat":42.4072107,"lng":-71.3824374},"Components":[{"LongName":"Massachusetts","ShortName":"MA","Types":[2,0,0,0]},{"LongName":"United States","ShortName":"US","Types":[1,0]}],"FormattedAddress":"Massachusetts, USA","Parent":{"PlaceId":"ChIJCzYy5IS16lQRQrfeQ5K5Oxw","Bounds":{"northeast":{"lat":71.5388001,"lng":-66.885417},"southwest":{"lat":18.7763,"lng":170.5957}},"LocationType":0,"Location":{"lat":0.0,"lng":0.0},"Components":[{"LongName":"United States","ShortName":"US","Types":[1,0]}],"FormattedAddress":"United States","Parent":null}}}}}}}}}}}},"ChIJ66O-AXtPSEcRN0LQC1tL5tk":{"PlaceId":"ChIJ66O-AXtPSEcRN0LQC1tL5tk","Bounds":{"northeast":{"lat":47.156465,"lng":23.3059182},"southwest":{"lat":47.1554245,"lng":23.3041908}},"LocationType":0,"Location":{"lat":0.0,"lng":0.0},"Components":[{"LongName":"DN1G","ShortName":"DN1G","Types":[8]},{"LongName":"Bălan","ShortName":"Bălan","Types":[4,0]},{"LongName":"Comuna Bălan","ShortName":"Comuna Bălan","Types":[3,0]},{"LongName":"Județul Sălaj","ShortName":"SJ","Types":[2,0]},{"LongName":"Romania","ShortName":"RO","Types":[1,0]},{"LongName":"457025","ShortName":"457025","Types":[10]}],"FormattedAddress":"DN1G, Bălan 457025, Romania","Parent":{"PlaceId":"ChIJR8UbEmtPSEcRClTnBn_Cqcc","Bounds":{"northeast":{"lat":47.1629914,"lng":23.3259487},"southwest":{"lat":47.1384756,"lng":23.2938051}},"LocationType":0,"Location":{"lat":0.0,"lng":0.0},"Components":[{"LongName":"Bălan","ShortName":"Bălan","Types":[4,0]},{"LongName":"Balan","ShortName":"Balan","Types":[3,0]},{"LongName":"Sălaj","ShortName":"SJ","Types":[2,0]},{"LongName":"Romania","ShortName":"RO","Types":[1,0]},{"LongName":"457025","ShortName":"457025","Types":[10]}],"FormattedAddress":"Bălan 457025, Romania","Parent":{"PlaceId":"ChIJVfeyMXdPSEcRumN1FyuaLFg","Bounds":{"northeast":{"lat":47.1629914,"lng":23.3259487},"southwest":{"lat":47.1384756,"lng":23.2938051}},"LocationType":0,"Location":{"lat":0.0,"lng":0.0},"Components":[{"LongName":"457025","ShortName":"457025","Types":[10]},{"LongName":"Bălan","ShortName":"Bălan","Types":[4,0]},{"LongName":"Balan","ShortName":"Balan","Types":[3,0]},{"LongName":"Sălaj","ShortName":"SJ","Types":[2,0]},{"LongName":"Romania","ShortName":"RO","Types":[1,0]}],"FormattedAddress":"Bălan 457025, Romania","Parent":{"PlaceId":"ChIJrYCFFIFFSEcRk-_wdZHJHoc","Bounds":{"northeast":{"lat":47.2156169,"lng":23.3682839},"southwest":{"lat":47.0952439,"lng":23.2059519}},"LocationType":0,"Location":{"lat":0.0,"lng":0.0},"Components":[{"LongName":"Balan","ShortName":"Balan","Types":[3,0]},{"LongName":"Sălaj","ShortName":"SJ","Types":[2,0]},{"LongName":"Romania","ShortName":"RO","Types":[1,0]}],"FormattedAddress":"Balan, Romania","Parent":{"PlaceId":"ChIJy4t2WktHSEcRk1kYidZ35lY","Bounds":{"northeast":{"lat":47.460111,"lng":23.8409952},"southwest":{"lat":46.854099,"lng":22.493326}},"LocationType":0,"Location":{"lat":0.0,"lng":0.0},"Components":[{"LongName":"Sălaj","ShortName":"SJ","Types":[2,0]},{"LongName":"Romania","ShortName":"RO","Types":[1,0]}],"FormattedAddress":"Sălaj, Romania","Parent":{"PlaceId":"ChIJw3aJlSb_sUARlLEEqJJP74Q","Bounds":{"northeast":{"lat":48.265274,"lng":29.778399999999991},"southwest":{"lat":43.6186193,"lng":20.2617593}},"LocationType":0,"Location":{"lat":0.0,"lng":0.0},"Components":[{"LongName":"Romania","ShortName":"RO","Types":[1,0]}],"FormattedAddress":"Romania","Parent":null}}}}}},"ChIJ6ed9tyat8TURB-NOIqeysWc":{"PlaceId":"ChIJ6ed9tyat8TURB-NOIqeysWc","Bounds":{"northeast":{"lat":0.0,"lng":0.0},"southwest":{"lat":0.0,"lng":0.0}},"LocationType":0,"Location":{"lat":0.0,"lng":0.0},"Components":[{"LongName":"9","ShortName":"9","Types":[9]},{"LongName":"Ya Bao Lu","ShortName":"Ya Bao Lu","Types":[8]},{"LongName":"Chaoyang Qu","ShortName":"Chaoyang Qu","Types":[0,5,6]},{"LongName":"Beijing","ShortName":"Beijing","Types":[4,0]},{"LongName":"Beijing Shi","ShortName":"Beijing Shi","Types":[2,0]},{"LongName":"China","ShortName":"CN","Types":[1,0]},{"LongName":"100020","ShortName":"100020","Types":[10]}],"FormattedAddress":"9 Ya Bao Lu, Chaoyang Qu, Beijing Shi, China, 100020","Parent":{"PlaceId":"ChIJR2lzI-6r8TUROoHQJjCLu9c","Bounds":{"northeast":{"lat":40.107933,"lng":116.6452732},"southwest":{"lat":39.8097688,"lng":116.3508829}},"LocationType":0,"Location":{"lat":0.0,"lng":0.0},"Components":[{"LongName":"Chaoyang","ShortName":"Chaoyang","Types":[0,5,6]},{"LongName":"Beijing","ShortName":"Beijing","Types":[4,0]},{"LongName":"Beijing","ShortName":"Beijing","Types":[2,0]},{"LongName":"China","ShortName":"CN","Types":[1,0]}],"FormattedAddress":"Chaoyang, Beijing, China","Parent":{"PlaceId":"ChIJuSwU55ZS8DURiqkPryBWYrk","Bounds":{"northeast":{"lat":41.0608159,"lng":117.514625},"southwest":{"lat":39.4427581,"lng":115.4234116}},"LocationType":0,"Location":{"lat":0.0,"lng":0.0},"Components":[{"LongName":"Beijing","ShortName":"Beijing","Types":[4,0]},{"LongName":"Beijing","ShortName":"Beijing","Types":[2,0]},{"LongName":"China","ShortName":"CN","Types":[1,0]}],"FormattedAddress":"Beijing, China","Parent":{"PlaceId":"ChIJmdlpax2t8TURccmE-O7qFjo","Bounds":{"northeast":{"lat":39.9514639,"lng":116.5123217},"southwest":{"lat":39.8982469,"lng":116.4252907}},"LocationType":0,"Location":{"lat":0.0,"lng":0.0},"Components":[{"LongName":"100020","ShortName":"100020","Types":[10]},{"LongName":"Chaoyang","ShortName":"Chaoyang","Types":[0,5,6]},{"LongName":"Beijing","ShortName":"Beijing","Types":[4,0]},{"LongName":"Beijing","ShortName":"Beijing","Types":[2,0]},{"LongName":"China","ShortName":"CN","Types":[1,0]}],"FormattedAddress":"Chaoyang, Beijing, China, 100020","Parent":{"PlaceId":"ChIJS_5hD32s8TUR-7v8cbEJ5cw","Bounds":{"northeast":{"lat":39.9503795,"lng":116.5064223},"southwest":{"lat":39.8976863,"lng":116.4429943}},"LocationType":0,"Location":{"lat":0.0,"lng":0.0},"Components":[{"LongName":"100026","ShortName":"100026","Types":[10]},{"LongName":"Chaoyang","ShortName":"Chaoyang","Types":[0,5,6]},{"LongName":"Beijing","ShortName":"Beijing","Types":[4,0]},{"LongName":"Beijing","ShortName":"Beijing","Types":[2,0]},{"LongName":"China","ShortName":"CN","Types":[1,0]}],"FormattedAddress":"Chaoyang, Beijing, China, 100026","Parent":{"PlaceId":"ChIJuSwU55ZS8DURp8_dOLuVd8A","Bounds":{"northeast":{"lat":41.0608159,"lng":117.514625},"southwest":{"lat":39.4427581,"lng":115.4234116}},"LocationType":0,"Location":{"lat":0.0,"lng":0.0},"Components":[{"LongName":"Beijing","ShortName":"Beijing","Types":[2,0]},{"LongName":"China","ShortName":"CN","Types":[1,0]}],"FormattedAddress":"Beijing, China","Parent":{"PlaceId":"ChIJwULG5WSOUDERbzafNHyqHZU","Bounds":{"northeast":{"lat":53.560973999999987,"lng":134.7728099},"southwest":{"lat":17.9996,"lng":73.4994136}},"LocationType":0,"Location":{"lat":0.0,"lng":0.0},"Components":[{"LongName":"China","ShortName":"CN","Types":[1,0]}],"FormattedAddress":"China","Parent":null}}}}}}},"ChIJR2lzI-6r8TUROoHQJjCLu9c":{"PlaceId":"ChIJR2lzI-6r8TUROoHQJjCLu9c","Bounds":{"northeast":{"lat":40.107933,"lng":116.6452732},"southwest":{"lat":39.8097688,"lng":116.3508829}},"LocationType":0,"Location":{"lat":0.0,"lng":0.0},"Components":[{"LongName":"Chaoyang","ShortName":"Chaoyang","Types":[0,5,6]},{"LongName":"Beijing","ShortName":"Beijing","Types":[4,0]},{"LongName":"Beijing","ShortName":"Beijing","Types":[2,0]},{"LongName":"China","ShortName":"CN","Types":[1,0]}],"FormattedAddress":"Chaoyang, Beijing, China","Parent":{"PlaceId":"ChIJuSwU55ZS8DURiqkPryBWYrk","Bounds":{"northeast":{"lat":41.0608159,"lng":117.514625},"southwest":{"lat":39.4427581,"lng":115.4234116}},"LocationType":0,"Location":{"lat":0.0,"lng":0.0},"Components":[{"LongName":"Beijing","ShortName":"Beijing","Types":[4,0]},{"LongName":"Beijing","ShortName":"Beijing","Types":[2,0]},{"LongName":"China","ShortName":"CN","Types":[1,0]}],"FormattedAddress":"Beijing, China","Parent":{"PlaceId":"ChIJmdlpax2t8TURccmE-O7qFjo","Bounds":{"northeast":{"lat":39.9514639,"lng":116.5123217},"southwest":{"lat":39.8982469,"lng":116.4252907}},"LocationType":0,"Location":{"lat":0.0,"lng":0.0},"Components":[{"LongName":"100020","ShortName":"100020","Types":[10]},{"LongName":"Chaoyang","ShortName":"Chaoyang","Types":[0,5,6]},{"LongName":"Beijing","ShortName":"Beijing","Types":[4,0]},{"LongName":"Beijing","ShortName":"Beijing","Types":[2,0]},{"LongName":"China","ShortName":"CN","Types":[1,0]}],"FormattedAddress":"Chaoyang, Beijing, China, 100020","Parent":{"PlaceId":"ChIJS_5hD32s8TUR-7v8cbEJ5cw","Bounds":{"northeast":{"lat":39.9503795,"lng":116.5064223},"southwest":{"lat":39.8976863,"lng":116.4429943}},"LocationType":0,"Location":{"lat":0.0,"lng":0.0},"Components":[{"LongName":"100026","ShortName":"100026","Types":[10]},{"LongName":"Chaoyang","ShortName":"Chaoyang","Types":[0,5,6]},{"LongName":"Beijing","ShortName":"Beijing","Types":[4,0]},{"LongName":"Beijing","ShortName":"Beijing","Types":[2,0]},{"LongName":"China","ShortName":"CN","Types":[1,0]}],"FormattedAddress":"Chaoyang, Beijing, China, 100026","Parent":{"PlaceId":"ChIJuSwU55ZS8DURp8_dOLuVd8A","Bounds":{"northeast":{"lat":41.0608159,"lng":117.514625},"southwest":{"lat":39.4427581,"lng":115.4234116}},"LocationType":0,"Location":{"lat":0.0,"lng":0.0},"Components":[{"LongName":"Beijing","ShortName":"Beijing","Types":[2,0]},{"LongName":"China","ShortName":"CN","Types":[1,0]}],"FormattedAddress":"Beijing, China","Parent":{"PlaceId":"ChIJwULG5WSOUDERbzafNHyqHZU","Bounds":{"northeast":{"lat":53.560973999999987,"lng":134.7728099},"southwest":{"lat":17.9996,"lng":73.4994136}},"LocationType":0,"Location":{"lat":0.0,"lng":0.0},