{"results":[{"address_components":[{"long_name":"153","short_name":"153","types":["route"]},{"long_name":"Aek Phnum","short_name":"Aek Phnum","types":["locality","political"]},{"long_name":"Ek Phnom","short_name":"Ek Phnom","types":["administrative_area_level_2","political"]},{"long_name":"Battambang Province","short_name":"Battambang Province","types":["administrative_area_level_1","political"]},{"long_name":"Cambodia","short_name":"KH","types":["country","political"]}],"formatted_address":"153, Aek Phnum, Cambodia","place_id":"ChIJ6UEVLQ9LBTER7osmV7Tdqr0","geometry":{"bounds":{"northeast":{"lat":13.1577975,"lng":103.2364815},"southwest":{"lat":13.156758,"lng":103.2314573}},"location":{"lat":13.1571751,"lng":103.2339442},"location_type":"GEOMETRIC_CENTER","types":null},"types":["route"]},{"address_components":[{"long_name":"Aek Phnum","short_name":"Aek Phnum","types":["locality","political"]},{"long_name":"Ek Phnom","short_name":"Ek Phnom","types":["administrative_area_level_2","political"]},{"long_name":"Battambang Province","short_name":"Battambang Province","types":["administrative_area_level_1","political"]},{"long_name":"Cambodia","short_name":"KH","types":["country","political"]}],"formatted_address":"Aek Phnum, Cambodia","place_id":"ChIJE5u8Sg9LBTERvodDWCVMhyI","geometry":{"bounds":{"northeast":{"lat":13.1673722,"lng":103.2492112},"southwest":{"lat":13.1476061,"lng":103.2192994}},"location":{"lat":13.1600324,"lng":103.2346076},"location_type":"APPROXIMATE","types":null},"types":["locality","political"]},{"address_components":[{"long_name":"Ek Phnom","short_name":"Ek Phnom","types":["administrative_area_level_2","political"]},{"long_name":"Battambang Province","short_name":"Battambang Province","types":["administrative_area_level_1","political"]},{"long_name":"Cambodia","short_name":"KH","types":["country","political"]}],"formatted_address":"Ek Phnom, Cambodia","place_id":"ChIJxTA8bp6uGjERZlQj3ys-ZgE","geometry":{"bounds":{"northeast":{"lat":13.42365,"lng":103.7047578},"southwest":{"lat":13.1374926,"lng":103.1458282}},"location":{"lat":13.3232845,"lng":103.4049445},"location_type":"APPROXIMATE","types":null},"types":["administrative_area_level_2","political"]},{"address_components":[{"long_name":"Battambang Province","short_name":"Battambang Province","types":["administrative_area_level_1","political"]},{"long_name":"Cambodia","short_name":"KH","types":["country","political"]}],"formatted_address":"Battambang Province, Cambodia","place_id":"ChIJDTYr8bY5BTERZOM1bitTUsI","geometry":{"bounds":{"northeast":{"lat":13.4669679,"lng":103.8692401},"southwest":{"lat":12.4044009,"lng":102.350647}},"location":{"lat":13.0286971,"lng":102.989615},"location_type":"APPROXIMATE","types":null},"types":["administrative_area_level_1","political"]},{"address_components":[{"long_name":"Cambodia","short_name":"KH","types":["country","political"]}],"formatted_address":"Cambodia","place_id":"ChIJQzfc1L-HBzERUxL0ieC_t-Q","geometry":{"bounds":{"northeast":{"lat":14.6901791,"lng":107.627687},"southwest":{"lat":9.6007,"lng":102.333542}},"location":{"lat":12.565679,"lng":104.990963},"location_type":"APPROXIMATE","types":null},"types":["country","political"]}],"City":null,"IsValid":true}