{"results":[{"address_components":[{"long_name":"Unnamed Road","short_name":"Unnamed Road","types":["route"]},{"long_name":"Sot Nikum","short_name":"Sot Nikum","types":["administrative_area_level_2","political"]},{"long_name":"Siem Reap Province","short_name":"Siem Reap Province","types":["administrative_area_level_1","political"]},{"long_name":"Cambodia","short_name":"KH","types":["country","political"]}],"formatted_address":"Unnamed Road, Cambodia","place_id":"ChIJs9jO75Y6EDERNDoU-gULHnc","geometry":{"bounds":{"northeast":{"lat":13.3572517,"lng":104.0867364},"southwest":{"lat":13.3571212,"lng":104.0832603}},"location":{"lat":13.3571879,"lng":104.0849982},"location_type":"GEOMETRIC_CENTER","types":null},"types":["route"]},{"address_components":[{"long_name":"Sot Nikum","short_name":"Sot Nikum","types":["administrative_area_level_2","political"]},{"long_name":"Siem Reap Province","short_name":"Siem Reap Province","types":["administrative_area_level_1","political"]},{"long_name":"Cambodia","short_name":"KH","types":["country","political"]}],"formatted_address":"Sot Nikum, Cambodia","place_id":"ChIJaW2sLJQoEDER_ktMAJMW2LY","geometry":{"bounds":{"northeast":{"lat":13.5290201,"lng":104.2137337},"southwest":{"lat":12.8984932,"lng":104.0221596}},"location":{"lat":13.3727363,"lng":104.1466046},"location_type":"APPROXIMATE","types":null},"types":["administrative_area_level_2","political"]},{"address_components":[{"long_name":"Siem Reap Province","short_name":"Siem Reap Province","types":["administrative_area_level_1","political"]},{"long_name":"Cambodia","short_name":"KH","types":["country","political"]}],"formatted_address":"Siem Reap Province, Cambodia","place_id":"ChIJ9aDUBwsXEDERuaxzznDT210","geometry":{"bounds":{"northeast":{"lat":14.221998,"lng":104.689093},"southwest":{"lat":12.716109,"lng":103.3926538}},"location":{"lat":13.6915377,"lng":104.1001326},"location_type":"APPROXIMATE","types":null},"types":["administrative_area_level_1","political"]},{"address_components":[{"long_name":"Cambodia","short_name":"KH","types":["country","political"]}],"formatted_address":"Cambodia","place_id":"ChIJQzfc1L-HBzERUxL0ieC_t-Q","geometry":{"bounds":{"northeast":{"lat":14.6901791,"lng":107.627687},"southwest":{"lat":9.6007,"lng":102.333542}},"location":{"lat":12.565679,"lng":104.990963},"location_type":"APPROXIMATE","types":null},"types":["country","political"]}],"City":null,"IsValid":true}