{"results":[{"address_components":[{"long_name":"Unnamed Road","short_name":"Unnamed Road","types":["route"]},{"long_name":"Phum Doun Ent","short_name":"Phum Doun Ent","types":["locality","political"]},{"long_name":"Ek Phnom","short_name":"Ek Phnom","types":["administrative_area_level_2","political"]},{"long_name":"Battambang Province","short_name":"Battambang Province","types":["administrative_area_level_1","political"]},{"long_name":"Cambodia","short_name":"KH","types":["country","political"]}],"formatted_address":"Unnamed Road, Phum Doun Ent, Cambodia","place_id":"ChIJjcuV4TuzGjERvmYbSz2Kv0g","geometry":{"bounds":{"northeast":{"lat":13.2151249,"lng":103.3114922},"southwest":{"lat":13.2070614,"lng":103.2935053}},"location":{"lat":13.2090395,"lng":103.302095},"location_type":"GEOMETRIC_CENTER","types":null},"types":["route"]},{"address_components":[{"long_name":"Phum Bak Roteh","short_name":"Phum Bak Roteh","types":["locality","political"]},{"long_name":"Ek Phnom","short_name":"Ek Phnom","types":["administrative_area_level_2","political"]},{"long_name":"Battambang Province","short_name":"Battambang Province","types":["administrative_area_level_1","political"]},{"long_name":"Cambodia","short_name":"KH","types":["country","political"]}],"formatted_address":"Phum Bak Roteh, Cambodia","place_id":"ChIJlaLGaiSzGjERNk8KSg2j9Pk","geometry":{"bounds":{"northeast":{"lat":13.2113073,"lng":103.3087993},"southwest":{"lat":13.2063146,"lng":103.3016325}},"location":{"lat":13.2092189,"lng":103.3060345},"location_type":"APPROXIMATE","types":null},"types":["locality","political"]},{"address_components":[{"long_name":"Ek Phnom","short_name":"Ek Phnom","types":["administrative_area_level_2","political"]},{"long_name":"Battambang Province","short_name":"Battambang Province","types":["administrative_area_level_1","political"]},{"long_name":"Cambodia","short_name":"KH","types":["country","political"]}],"formatted_address":"Ek Phnom, Cambodia","place_id":"ChIJxTA8bp6uGjERZlQj3ys-ZgE","geometry":{"bounds":{"northeast":{"lat":13.42365,"lng":103.7047578},"southwest":{"lat":13.1374926,"lng":103.1458282}},"location":{"lat":13.3232845,"lng":103.4049445},"location_type":"APPROXIMATE","types":null},"types":["administrative_area_level_2","political"]},{"address_components":[{"long_name":"Battambang Province","short_name":"Battambang Province","types":["administrative_area_level_1","political"]},{"long_name":"Cambodia","short_name":"KH","types":["country","political"]}],"formatted_address":"Battambang Province, Cambodia","place_id":"ChIJDTYr8bY5BTERZOM1bitTUsI","geometry":{"bounds":{"northeast":{"lat":13.4669679,"lng":103.8692401},"southwest":{"lat":12.4044009,"lng":102.350647}},"location":{"lat":13.0286971,"lng":102.989615},"location_type":"APPROXIMATE","types":null},"types":["administrative_area_level_1","political"]},{"address_components":[{"long_name":"Cambodia","short_name":"KH","types":["country","political"]}],"formatted_address":"Cambodia","place_id":"ChIJQzfc1L-HBzERUxL0ieC_t-Q","geometry":{"bounds":{"northeast":{"lat":14.6901791,"lng":107.627687},"southwest":{"lat":9.6007,"lng":102.333542}},"location":{"lat":12.565679,"lng":104.990963},"location_type":"APPROXIMATE","types":null},"types":["country","political"]}],"City":null,"IsValid":true}