{"results":[{"address_components":[{"long_name":"1214","short_name":"1214","types":["street_number"]},{"long_name":"Laad Bazaar Road","short_name":"Laad Bazaar Rd","types":["route"]},{"long_name":"Char Kaman","short_name":"Char Kaman","types":["political","sublocality","sublocality_level_2"]},{"long_name":"Ghansi Bazaar","short_name":"Ghansi Bazaar","types":["political","sublocality","sublocality_level_1"]},{"long_name":"Hyderabad","short_name":"Hyderabad","types":["locality","political"]},{"long_name":"Hyderabad","short_name":"Hyderabad","types":["administrative_area_level_2","political"]},{"long_name":"Telangana","short_name":"Telangana","types":["administrative_area_level_1","political"]},{"long_name":"India","short_name":"IN","types":["country","political"]},{"long_name":"500066","short_name":"500066","types":["postal_code"]}],"formatted_address":"1214, Laad Bazaar Rd, Char Kaman, Ghansi Bazaar, Hyderabad, Telangana 500066, India","place_id":"ElMxMjE0LCBMYWFkIEJhemFhciBSZCwgQ2hhciBLYW1hbiwgR2hhbnNpIEJhemFhciwgSHlkZXJhYmFkLCBUZWxhbmdhbmEgNTAwMDY2LCBJbmRpYQ","geometry":{"bounds":{"northeast":{"lat":17.3617757,"lng":78.4743949},"southwest":{"lat":17.361668,"lng":78.473739}},"location":{"lat":17.3616503,"lng":78.4743917},"location_type":"RANGE_INTERPOLATED","types":null},"types":["street_address"]},{"address_components":[{"long_name":"Char Kaman","short_name":"Char Kaman","types":["political","sublocality","sublocality_level_2"]},{"long_name":"Ghansi Bazaar","short_name":"Ghansi Bazaar","types":["political","sublocality","sublocality_level_1"]},{"long_name":"Hyderabad","short_name":"Hyderabad","types":["locality","political"]},{"long_name":"Hyderabad","short_name":"Hyderabad","types":["administrative_area_level_2","political"]},{"long_name":"Telangana","short_name":"Telangana","types":["administrative_area_level_1","political"]},{"long_name":"India","short_name":"IN","types":["country","political"]}],"formatted_address":"Char Kaman, Ghansi Bazaar, Hyderabad, Telangana, India","place_id":"ChIJdwEgKIqXyzsRMZu6a40HQzE","geometry":{"bounds":{"northeast":{"lat":17.366962,"lng":78.4750789},"southwest":{"lat":17.3611949,"lng":78.469895999999991}},"location":{"lat":17.3638264,"lng":78.4716424},"location_type":"APPROXIMATE","types":null},"types":["political","sublocality","sublocality_level_2"]},{"address_components":[{"long_name":"Ghansi Bazaar","short_name":"Ghansi Bazaar","types":["political","sublocality","sublocality_level_1"]},{"long_name":"Hyderabad","short_name":"Hyderabad","types":["locality","political"]},{"long_name":"Hyderabad","short_name":"Hyderabad","types":["administrative_area_level_2","political"]},{"long_name":"Telangana","short_name":"Telangana","types":["administrative_area_level_1","political"]},{"long_name":"India","short_name":"IN","types":["country","political"]}],"formatted_address":"Ghansi Bazaar, Hyderabad, Telangana, India","place_id":"ChIJO3pv2o6XyzsRq_XcVsSbpq0","geometry":{"bounds":{"northeast":{"lat":17.3748471,"lng":78.477074899999991},"southwest":{"lat":17.3591339,"lng":78.462152899999992}},"location":{"lat":17.3674242,"lng":78.470931999999991},"location_type":"APPROXIMATE","types":null},"types":["political","sublocality","sublocality_level_1"]},{"address_components":[{"long_name":"Hyderabad","short_name":"Hyderabad","types":["locality","political"]},{"long_name":"Telangana","short_name":"Telangana","types":["administrative_area_level_1","political"]},{"long_name":"India","short_name":"IN","types":["country","political"]}],"formatted_address":"Hyderabad, Telangana, India","place_id":"ChIJx9Lr6tqZyzsRwvu6koO3k64","geometry":{"bounds":{"northeast":{"lat":17.6078088,"lng":78.6561694},"southwest":{"lat":17.2168886,"lng":78.1599217}},"location":{"lat":17.385044,"lng":78.486671},"location_type":"APPROXIMATE","types":null},"types":["locality","political"]},{"address_components":[{"long_name":"500002","short_name":"500002","types":["postal_code"]},{"long_name":"Hyderabad","short_name":"Hyderabad","types":["locality","political"]},{"long_name":"Hyderabad","short_name":"Hyderabad","types":["administrative_area_level_2","political"]},{"long_name":"Telangana","short_name":"Telangana","types":["administrative_area_level_1","political"]},{"long_name":"India","short_name":"IN","types":["country","political"]}],"formatted_address":"Hyderabad, Telangana 500002, India","place_id":"ChIJ-feVEiGYyzsRO8zt4_K4PLw","geometry":{"bounds":{"northeast":{"lat":17.369525,"lng":78.4905751},"southwest":{"lat":17.3507339,"lng":78.468834700000016}},"location":{"lat":17.3609611,"lng":78.48000909999999},"location_type":"APPROXIMATE","types":null},"types":["postal_code"]},{"address_components":[{"long_name":"Hyderabad","short_name":"Hyderabad","types":["administrative_area_level_2","political"]},{"long_name":"Telangana","short_name":"Telangana","types":["administrative_area_level_1","political"]},{"long_name":"India","short_name":"IN","types":["country","political"]}],"formatted_address":"Hyderabad, Telangana, India","place_id":"ChIJx9Lr6tqZyzsRMyOXJZHL34s","geometry":{"bounds":{"northeast":{"lat":17.52701,"lng":78.55109},"southwest":{"lat":17.29111,"lng":78.3640099}},"location":{"lat":17.4027421,"lng":78.4524591},"location_type":"APPROXIMATE","types":null},"types":["administrative_area_level_2","political"]},{"address_components":[{"long_name":"Telangana","short_name":"Telangana","types":["administrative_area_level_1","political"]},{"long_name":"India","short_name":"IN","types":["country","political"]}],"formatted_address":"Telangana, India","place_id":"ChIJQ-0plNtQMzoRWUBZQad772M","geometry":{"bounds":{"northeast":{"lat":19.916715,"lng":81.3075465},"southwest":{"lat":15.83535,"lng":77.237912999999992}},"location":{"lat":18.1124372,"lng":79.019299699999991},"location_type":"APPROXIMATE","types":null},"types":["administrative_area_level_1","political"]},{"address_components":[{"long_name":"India","short_name":"IN","types":["country","political"]}],"formatted_address":"India","place_id":"ChIJkbeSa_BfYzARphNChaFPjNc","geometry":{"bounds":{"northeast":{"lat":35.5087008,"lng":97.395358699999989},"southwest":{"lat":6.4626999,"lng":68.1097}},"location":{"lat":20.593684,"lng":78.96288},"location_type":"APPROXIMATE","types":null},"types":["country","political"]}],"City":null,"IsValid":true}