{"results":[{"address_components":[{"long_name":"67","short_name":"67","types":["route"]},{"long_name":"Preah Dak","short_name":"Preah Dak","types":["locality","political"]},{"long_name":"Prasat Bakong","short_name":"Prasat Bakong","types":["administrative_area_level_2","political"]},{"long_name":"Siem Reap Province","short_name":"Siem Reap Province","types":["administrative_area_level_1","political"]},{"long_name":"Cambodia","short_name":"KH","types":["country","political"]}],"formatted_address":"67, Preah Dak, Cambodia","place_id":"ChIJzT_eTms-EDERFVYRDdB0wFk","geometry":{"bounds":{"northeast":{"lat":13.4510556,"lng":103.9385739},"southwest":{"lat":13.443973,"lng":103.9379731}},"location":{"lat":13.4475046,"lng":103.9382823},"location_type":"GEOMETRIC_CENTER","types":null},"types":["route"]},{"address_components":[{"long_name":"Prasat Bakong","short_name":"Prasat Bakong","types":["administrative_area_level_2","political"]},{"long_name":"Siem Reap Province","short_name":"Siem Reap Province","types":["administrative_area_level_1","political"]},{"long_name":"Cambodia","short_name":"KH","types":["country","political"]}],"formatted_address":"Prasat Bakong, Cambodia","place_id":"ChIJu952cVIjEDER6WB02OuTlVA","geometry":{"bounds":{"northeast":{"lat":13.4871251,"lng":104.0858459},"southwest":{"lat":13.1774425,"lng":103.9064597}},"location":{"lat":13.3832052,"lng":103.9608091},"location_type":"APPROXIMATE","types":null},"types":["administrative_area_level_2","political"]},{"address_components":[{"long_name":"Siem Reap Province","short_name":"Siem Reap Province","types":["administrative_area_level_1","political"]},{"long_name":"Cambodia","short_name":"KH","types":["country","political"]}],"formatted_address":"Siem Reap Province, Cambodia","place_id":"ChIJ9aDUBwsXEDERuaxzznDT210","geometry":{"bounds":{"northeast":{"lat":14.221998,"lng":104.689093},"southwest":{"lat":12.716109,"lng":103.3926538}},"location":{"lat":13.6915377,"lng":104.1001326},"location_type":"APPROXIMATE","types":null},"types":["administrative_area_level_1","political"]},{"address_components":[{"long_name":"Cambodia","short_name":"KH","types":["country","political"]}],"formatted_address":"Cambodia","place_id":"ChIJQzfc1L-HBzERUxL0ieC_t-Q","geometry":{"bounds":{"northeast":{"lat":14.6901791,"lng":107.627687},"southwest":{"lat":9.6007,"lng":102.333542}},"location":{"lat":12.565679,"lng":104.990963},"location_type":"APPROXIMATE","types":null},"types":["country","political"]}],"City":null,"IsValid":true}