{"results":[{"address_components":[{"long_name":"Unnamed Road","short_name":"Unnamed Road","types":["route"]},{"long_name":"Tambon Mae Ka","short_name":"Tambon Mae Ka","types":["locality","political"]},{"long_name":"Amphoe Mueang Phayao","short_name":"Amphoe Mueang Phayao","types":["administrative_area_level_2","political"]},{"long_name":"Chang Wat Phayao","short_name":"Chang Wat Phayao","types":["administrative_area_level_1","political"]},{"long_name":"Thailand","short_name":"TH","types":["country","political"]},{"long_name":"56000","short_name":"56000","types":["postal_code"]}],"formatted_address":"Unnamed Road, Tambon Mae Ka, Amphoe Mueang Phayao, Chang Wat Phayao 56000, Thailand","place_id":"ChIJpZD2qMk12DAROppHfl9mOcM","geometry":{"bounds":{"northeast":{"lat":18.9580117,"lng":99.9723181},"southwest":{"lat":18.9574184,"lng":99.970620099999991}},"location":{"lat":18.9577628,"lng":99.971469399999989},"location_type":"GEOMETRIC_CENTER","types":null},"types":["route"]},{"address_components":[{"long_name":"Mae Ka","short_name":"Mae Ka","types":["locality","political"]},{"long_name":"Mueang Phayao District","short_name":"Mueang Phayao District","types":["administrative_area_level_2","political"]},{"long_name":"Phayao","short_name":"Phayao","types":["administrative_area_level_1","political"]},{"long_name":"Thailand","short_name":"TH","types":["country","political"]},{"long_name":"56000","short_name":"56000","types":["postal_code"]}],"formatted_address":"Mae Ka, Mueang Phayao District, Phayao 56000, Thailand","place_id":"ChIJfUeDMqc02DARwK-L-sVGAwQ","geometry":{"bounds":{"northeast":{"lat":19.1242628,"lng":100.0072025},"southwest":{"lat":18.902945,"lng":99.8296702}},"location":{"lat":19.030484,"lng":99.9265624},"location_type":"APPROXIMATE","types":null},"types":["locality","political"]},{"address_components":[{"long_name":"Mueang Phayao District","short_name":"Mueang Phayao District","types":["administrative_area_level_2","political"]},{"long_name":"Phayao","short_name":"Phayao","types":["administrative_area_level_1","political"]},{"long_name":"Thailand","short_name":"TH","types":["country","political"]},{"long_name":"56000","short_name":"56000","types":["postal_code"]}],"formatted_address":"Mueang Phayao District, Phayao 56000, Thailand","place_id":"ChIJf1YSh_nS2TARwHKK-sVGAwM","geometry":{"bounds":{"northeast":{"lat":19.4058255,"lng":100.0270927},"southwest":{"lat":18.8953072,"lng":99.698158400000011}},"location":{"lat":19.1664466,"lng":99.9019888},"location_type":"APPROXIMATE","types":null},"types":["administrative_area_level_2","political"]},{"address_components":[{"long_name":"56000","short_name":"56000","types":["postal_code"]},{"long_name":"Phayao","short_name":"Phayao","types":["administrative_area_level_1","political"]},{"long_name":"Thailand","short_name":"TH","types":["country","political"]}],"formatted_address":"Phayao 56000, Thailand","place_id":"ChIJLaPeVQHT2TARwNH6KMlGAxw","geometry":{"bounds":{"northeast":{"lat":19.4355048,"lng":100.0270239},"southwest":{"lat":18.89546,"lng":99.6978211}},"location":{"lat":19.1601844,"lng":99.857141599999991},"location_type":"APPROXIMATE","types":null},"types":["postal_code"]},{"address_components":[{"long_name":"Phayao","short_name":"Phayao","types":["administrative_area_level_1","political"]},{"long_name":"Thailand","short_name":"TH","types":["country","political"]}],"formatted_address":"Phayao, Thailand","place_id":"ChIJGzA39CAh2DARjGrJ9iFLWhk","geometry":{"bounds":{"northeast":{"lat":19.7351674,"lng":100.6289514},"southwest":{"lat":18.8063029,"lng":99.6828377}},"location":{"lat":19.2154367,"lng":100.2023692},"location_type":"APPROXIMATE","types":null},"types":["administrative_area_level_1","political"]},{"address_components":[{"long_name":"Thailand","short_name":"TH","types":["country","political"]}],"formatted_address":"Thailand","place_id":"ChIJsU1CR_eNTTARAuhXB4gs154","geometry":{"bounds":{"northeast":{"lat":20.465143,"lng":105.636812},"southwest":{"lat":5.613038,"lng":97.343396}},"location":{"lat":15.870032,"lng":100.992541},"location_type":"APPROXIMATE","types":null},"types":["country","political"]}],"City":null,"IsValid":true}