{"results":[{"address_components":[{"long_name":"Pak Xeuang - Pak Xeng Road","short_name":"Pak Xeuang - Pak Xeng Rd","types":["route"]},{"long_name":"Luang Prabang Province","short_name":"Luang Prabang Province","types":["administrative_area_level_1","political"]},{"long_name":"Laos","short_name":"LA","types":["country","political"]}],"formatted_address":"Pak Xeuang - Pak Xeng Rd, Laos","place_id":"ChIJwU3LU33uLjERQvAkZyvVjlc","geometry":{"bounds":{"northeast":{"lat":20.1642649,"lng":102.5916409},"southwest":{"lat":20.1379163,"lng":102.5608385}},"location":{"lat":20.1508956,"lng":102.5771332},"location_type":"GEOMETRIC_CENTER","types":null},"types":["route"]},{"address_components":[{"long_name":"Luang Prabang Province","short_name":"Luang Prabang Province","types":["administrative_area_level_1","political"]},{"long_name":"Laos","short_name":"LA","types":["country","political"]}],"formatted_address":"Luang Prabang Province, Laos","place_id":"ChIJ-1Vy5szvLjERek7q3fgwKxo","geometry":{"bounds":{"northeast":{"lat":21.145014,"lng":103.402969},"southwest":{"lat":19.0528441,"lng":101.710163}},"location":{"lat":20.0656229,"lng":102.6216211},"location_type":"APPROXIMATE","types":null},"types":["administrative_area_level_1","political"]},{"address_components":[{"long_name":"Laos","short_name":"LA","types":["country","political"]}],"formatted_address":"Laos","place_id":"ChIJiUWCsFeQFDERgc2ZH0iSxQ4","geometry":{"bounds":{"northeast":{"lat":22.502872,"lng":107.69483},"southwest":{"lat":13.90972,"lng":100.0832139}},"location":{"lat":19.85627,"lng":102.495496},"location_type":"APPROXIMATE","types":null},"types":["country","political"]}],"City":null,"IsValid":true}