{"results":[{"address_components":[{"long_name":"18","short_name":"18","types":["street_number"]},{"long_name":"Jie He Kou","short_name":"Jie He Kou","types":["route"]},{"long_name":"Yueyanglou Qu","short_name":"Yueyanglou Qu","types":["political","sublocality","sublocality_level_1"]},{"long_name":"Yueyang Shi","short_name":"Yueyang Shi","types":["locality","political"]},{"long_name":"Hunan Sheng","short_name":"Hunan Sheng","types":["administrative_area_level_1","political"]},{"long_name":"China","short_name":"CN","types":["country","political"]}],"formatted_address":"18 Jie He Kou, Yueyanglou Qu, Yueyang Shi, Hunan Sheng, China","place_id":"ChIJ3Uvo4qbcJzQRRpYfOskWrkY","geometry":{"bounds":{"northeast":{"lat":0.0,"lng":0.0},"southwest":{"lat":0.0,"lng":0.0}},"location":{"lat":29.372017,"lng":113.093399},"location_type":"ROOFTOP","types":null},"types":["street_address"]},{"address_components":[{"long_name":"Yueyang","short_name":"Yueyang","types":["political","sublocality","sublocality_level_1"]},{"long_name":"Yueyang","short_name":"Yueyang","types":["locality","political"]},{"long_name":"Hunan","short_name":"Hunan","types":["administrative_area_level_1","political"]},{"long_name":"China","short_name":"CN","types":["country","political"]}],"formatted_address":"Yueyang, Hunan, China","place_id":"ChIJQ2q7oSLJJzQRvOz3J4HCwLg","geometry":{"bounds":{"northeast":{"lat":29.5108978,"lng":113.737148},"southwest":{"lat":28.9510279,"lng":112.772595}},"location":{"lat":29.144067,"lng":113.116418},"location_type":"APPROXIMATE","types":null},"types":["political","sublocality","sublocality_level_1"]},{"address_components":[{"long_name":"Yueyang","short_name":"Yueyang","types":["locality","political"]},{"long_name":"Hunan","short_name":"Hunan","types":["administrative_area_level_1","political"]},{"long_name":"China","short_name":"CN","types":["country","political"]}],"formatted_address":"Yueyang, Hunan, China","place_id":"ChIJL8PpA8q3JzQRCpNdwE-lcvU","geometry":{"bounds":{"northeast":{"lat":29.848931399999991,"lng":114.1571271},"southwest":{"lat":28.4221833,"lng":112.3157265}},"location":{"lat":29.356804,"lng":113.12873},"location_type":"APPROXIMATE","types":null},"types":["locality","political"]},{"address_components":[{"long_name":"Hunan","short_name":"Hunan","types":["administrative_area_level_1","political"]},{"long_name":"China","short_name":"CN","types":["country","political"]}],"formatted_address":"Hunan, China","place_id":"ChIJTTiHaRi6IDQR5Syu5AuRIcw","geometry":{"bounds":{"northeast":{"lat":30.1263631,"lng":114.2612647},"southwest":{"lat":24.6363233,"lng":108.7908414}},"location":{"lat":28.112449,"lng":112.98381},"location_type":"APPROXIMATE","types":null},"types":["administrative_area_level_1","political"]},{"address_components":[{"long_name":"China","short_name":"CN","types":["country","political"]}],"formatted_address":"China","place_id":"ChIJwULG5WSOUDERbzafNHyqHZU","geometry":{"bounds":{"northeast":{"lat":53.560973999999987,"lng":134.7728099},"southwest":{"lat":17.9996,"lng":73.4994136}},"location":{"lat":35.86166,"lng":104.195397},"location_type":"APPROXIMATE","types":null},"types":["country","political"]}],"City":null,"IsValid":true}