{"results":[{"address_components":[{"long_name":"1C","short_name":"1C","types":["route"]},{"long_name":"Luang Prabang Province","short_name":"Luang Prabang Province","types":["administrative_area_level_1","political"]},{"long_name":"Laos","short_name":"LA","types":["country","political"]}],"formatted_address":"1C, Laos","place_id":"ChIJ1aXA6XVCLjERpmbposko1vg","geometry":{"bounds":{"northeast":{"lat":20.2218819,"lng":103.0553788},"southwest":{"lat":20.2170717,"lng":103.0525198}},"location":{"lat":20.2192892,"lng":103.0549378},"location_type":"GEOMETRIC_CENTER","types":null},"types":["route"]},{"address_components":[{"long_name":"Luang Prabang Province","short_name":"Luang Prabang Province","types":["administrative_area_level_1","political"]},{"long_name":"Laos","short_name":"LA","types":["country","political"]}],"formatted_address":"Luang Prabang Province, Laos","place_id":"ChIJ-1Vy5szvLjERek7q3fgwKxo","geometry":{"bounds":{"northeast":{"lat":21.145014,"lng":103.402969},"southwest":{"lat":19.0528441,"lng":101.710163}},"location":{"lat":20.0656229,"lng":102.6216211},"location_type":"APPROXIMATE","types":null},"types":["administrative_area_level_1","political"]},{"address_components":[{"long_name":"Laos","short_name":"LA","types":["country","political"]}],"formatted_address":"Laos","place_id":"ChIJiUWCsFeQFDERgc2ZH0iSxQ4","geometry":{"bounds":{"northeast":{"lat":22.502872,"lng":107.69483},"southwest":{"lat":13.90972,"lng":100.0832139}},"location":{"lat":19.85627,"lng":102.495496},"location_type":"APPROXIMATE","types":null},"types":["country","political"]}],"City":null,"IsValid":true}