{"results":[{"address_components":[{"long_name":"70","short_name":"70","types":["street_number"]},{"long_name":"Xiao Bao Nan Jie","short_name":"Xiao Bao Nan Jie","types":["route"]},{"long_name":"Tongzhou Qu","short_name":"Tongzhou Qu","types":["political","sublocality","sublocality_level_1"]},{"long_name":"Beijing","short_name":"Beijing","types":["locality","political"]},{"long_name":"Beijing Shi","short_name":"Beijing Shi","types":["administrative_area_level_1","political"]},{"long_name":"China","short_name":"CN","types":["country","political"]}],"formatted_address":"70 Xiao Bao Nan Jie, Tongzhou Qu, Beijing Shi, China","place_id":"ChIJxfsT5rig8TUR3qhzz6AyQ0U","geometry":{"bounds":{"northeast":{"lat":0.0,"lng":0.0},"southwest":{"lat":0.0,"lng":0.0}},"location":{"lat":39.947577,"lng":116.718403},"location_type":"ROOFTOP","types":null},"types":["street_address"]},{"address_components":[{"long_name":"Tongzhou","short_name":"Tongzhou","types":["political","sublocality","sublocality_level_1"]},{"long_name":"Beijing","short_name":"Beijing","types":["locality","political"]},{"long_name":"Beijing","short_name":"Beijing","types":["administrative_area_level_1","political"]},{"long_name":"China","short_name":"CN","types":["country","political"]}],"formatted_address":"Tongzhou, Beijing, China","place_id":"ChIJD4TMCDKj8TURUc2lPg3KJz0","geometry":{"bounds":{"northeast":{"lat":40.0317497,"lng":116.9538392},"southwest":{"lat":39.5930919,"lng":116.5205413}},"location":{"lat":39.909946,"lng":116.656435},"location_type":"APPROXIMATE","types":null},"types":["political","sublocality","sublocality_level_1"]},{"address_components":[{"long_name":"Beijing","short_name":"Beijing","types":["locality","political"]},{"long_name":"Beijing","short_name":"Beijing","types":["administrative_area_level_1","political"]},{"long_name":"China","short_name":"CN","types":["country","political"]}],"formatted_address":"Beijing, China","place_id":"ChIJuSwU55ZS8DURiqkPryBWYrk","geometry":{"bounds":{"northeast":{"lat":41.0608159,"lng":117.514625},"southwest":{"lat":39.4427581,"lng":115.4234116}},"location":{"lat":39.904211,"lng":116.407395},"location_type":"APPROXIMATE","types":null},"types":["locality","political"]},{"address_components":[{"long_name":"Beijing","short_name":"Beijing","types":["administrative_area_level_1","political"]},{"long_name":"China","short_name":"CN","types":["country","political"]}],"formatted_address":"Beijing, China","place_id":"ChIJuSwU55ZS8DURp8_dOLuVd8A","geometry":{"bounds":{"northeast":{"lat":41.0608159,"lng":117.514625},"southwest":{"lat":39.4427581,"lng":115.4234116}},"location":{"lat":39.904211,"lng":116.407395},"location_type":"APPROXIMATE","types":null},"types":["administrative_area_level_1","political"]},{"address_components":[{"long_name":"China","short_name":"CN","types":["country","political"]}],"formatted_address":"China","place_id":"ChIJwULG5WSOUDERbzafNHyqHZU","geometry":{"bounds":{"northeast":{"lat":53.560973999999987,"lng":134.7728099},"southwest":{"lat":17.9996,"lng":73.4994136}},"location":{"lat":35.86166,"lng":104.195397},"location_type":"APPROXIMATE","types":null},"types":["country","political"]}],"City":null,"IsValid":true}