{"results":[{"address_components":[{"long_name":"1","short_name":"1","types":["street_number"]},{"long_name":"Qi Xing Xi Jie","short_name":"Qi Xing Xi Jie","types":["route"]},{"long_name":"Chaoyang Qu","short_name":"Chaoyang Qu","types":["political","sublocality","sublocality_level_1"]},{"long_name":"Beijing","short_name":"Beijing","types":["locality","political"]},{"long_name":"Beijing Shi","short_name":"Beijing Shi","types":["administrative_area_level_1","political"]},{"long_name":"China","short_name":"CN","types":["country","political"]},{"long_name":"100015","short_name":"100015","types":["postal_code"]}],"formatted_address":"1 Qi Xing Xi Jie, Chaoyang Qu, Beijing Shi, China, 100015","place_id":"ChIJIUNW3jSq8TURXu0qAh0GpB8","geometry":{"bounds":{"northeast":{"lat":0.0,"lng":0.0},"southwest":{"lat":0.0,"lng":0.0}},"location":{"lat":39.983146,"lng":116.493362},"location_type":"ROOFTOP","types":null},"types":["street_address"]},{"address_components":[{"long_name":"Chaoyang","short_name":"Chaoyang","types":["political","sublocality","sublocality_level_1"]},{"long_name":"Beijing","short_name":"Beijing","types":["locality","political"]},{"long_name":"Beijing","short_name":"Beijing","types":["administrative_area_level_1","political"]},{"long_name":"China","short_name":"CN","types":["country","political"]}],"formatted_address":"Chaoyang, Beijing, China","place_id":"ChIJR2lzI-6r8TUROoHQJjCLu9c","geometry":{"bounds":{"northeast":{"lat":40.107933,"lng":116.6452732},"southwest":{"lat":39.8097688,"lng":116.3508829}},"location":{"lat":39.92147,"lng":116.443108},"location_type":"APPROXIMATE","types":null},"types":["political","sublocality","sublocality_level_1"]},{"address_components":[{"long_name":"Beijing","short_name":"Beijing","types":["locality","political"]},{"long_name":"Beijing","short_name":"Beijing","types":["administrative_area_level_1","political"]},{"long_name":"China","short_name":"CN","types":["country","political"]}],"formatted_address":"Beijing, China","place_id":"ChIJuSwU55ZS8DURiqkPryBWYrk","geometry":{"bounds":{"northeast":{"lat":41.0608159,"lng":117.514625},"southwest":{"lat":39.4427581,"lng":115.4234116}},"location":{"lat":39.904211,"lng":116.407395},"location_type":"APPROXIMATE","types":null},"types":["locality","political"]},{"address_components":[{"long_name":"100015","short_name":"100015","types":["postal_code"]},{"long_name":"Chaoyang","short_name":"Chaoyang","types":["political","sublocality","sublocality_level_1"]},{"long_name":"Beijing","short_name":"Beijing","types":["locality","political"]},{"long_name":"Beijing","short_name":"Beijing","types":["administrative_area_level_1","political"]},{"long_name":"China","short_name":"CN","types":["country","political"]}],"formatted_address":"Chaoyang, Beijing, China, 100015","place_id":"ChIJhzQmFVWq8TURh9nL-R6eacE","geometry":{"bounds":{"northeast":{"lat":40.0187967,"lng":116.5137965},"southwest":{"lat":39.9614522,"lng":116.4606968}},"location":{"lat":39.9896188,"lng":116.4681231},"location_type":"APPROXIMATE","types":null},"types":["postal_code"]},{"address_components":[{"long_name":"Beijing","short_name":"Beijing","types":["administrative_area_level_1","political"]},{"long_name":"China","short_name":"CN","types":["country","political"]}],"formatted_address":"Beijing, China","place_id":"ChIJuSwU55ZS8DURp8_dOLuVd8A","geometry":{"bounds":{"northeast":{"lat":41.0608159,"lng":117.514625},"southwest":{"lat":39.4427581,"lng":115.4234116}},"location":{"lat":39.904211,"lng":116.407395},"location_type":"APPROXIMATE","types":null},"types":["administrative_area_level_1","political"]},{"address_components":[{"long_name":"China","short_name":"CN","types":["country","political"]}],"formatted_address":"China","place_id":"ChIJwULG5WSOUDERbzafNHyqHZU","geometry":{"bounds":{"northeast":{"lat":53.560973999999987,"lng":134.7728099},"southwest":{"lat":17.9996,"lng":73.4994136}},"location":{"lat":35.86166,"lng":104.195397},"location_type":"APPROXIMATE","types":null},"types":["country","political"]}],"City":null,"IsValid":true}