{
   "results" : [
      {
         "address_components" : [
            {
               "long_name" : "Yan Hu Lu",
               "short_name" : "Yan Hu Lu",
               "types" : [ "route" ]
            },
            {
               "long_name" : "Yichuan Xian",
               "short_name" : "Yichuan Xian",
               "types" : [ "political", "sublocality", "sublocality_level_1" ]
            },
            {
               "long_name" : "Yanan Shi",
               "short_name" : "Yanan Shi",
               "types" : [ "locality", "political" ]
            },
            {
               "long_name" : "Shaanxi Sheng",
               "short_name" : "Shaanxi Sheng",
               "types" : [ "administrative_area_level_1", "political" ]
            },
            {
               "long_name" : "China",
               "short_name" : "CN",
               "types" : [ "country", "political" ]
            }
         ],
         "formatted_address" : "Yan Hu Lu, Yichuan Xian, Yanan Shi, Shaanxi Sheng, China",
         "geometry" : {
            "bounds" : {
               "northeast" : {
                  "lat" : 36.1546785,
                  "lng" : 110.4485641
               },
               "southwest" : {
                  "lat" : 36.1416085,
                  "lng" : 110.446611
               }
            },
            "location" : {
               "lat" : 36.1481884,
               "lng" : 110.4480388
            },
            "location_type" : "GEOMETRIC_CENTER",
            "viewport" : {
               "northeast" : {
                  "lat" : 36.1546785,
                  "lng" : 110.4489365302915
               },
               "southwest" : {
                  "lat" : 36.1416085,
                  "lng" : 110.4462385697085
               }
            }
         },
         "place_id" : "ChIJZ0o2Lsr9cDYRz-HJQ_9uS2o",
         "types" : [ "route" ]
      },
      {
         "address_components" : [
            {
               "long_name" : "Yichuan",
               "short_name" : "Yichuan",
               "types" : [ "political", "sublocality", "sublocality_level_1" ]
            },
            {
               "long_name" : "Yan'an",
               "short_name" : "Yan'an",
               "types" : [ "locality", "political" ]
            },
            {
               "long_name" : "Shaanxi",
               "short_name" : "Shaanxi",
               "types" : [ "administrative_area_level_1", "political" ]
            },
            {
               "long_name" : "China",
               "short_name" : "CN",
               "types" : [ "country", "political" ]
            }
         ],
         "formatted_address" : "Yichuan, Yan'an, Shaanxi, China",
         "geometry" : {
            "bounds" : {
               "northeast" : {
                  "lat" : 36.4031159,
                  "lng" : 110.5515282
               },
               "southwest" : {
                  "lat" : 35.7116264,
                  "lng" : 109.7053684
               }
            },
            "location" : {
               "lat" : 36.050178,
               "lng" : 110.168963
            },
            "location_type" : "APPROXIMATE",
            "viewport" : {
               "northeast" : {
                  "lat" : 36.4031159,
                  "lng" : 110.5515282
               },
               "southwest" : {
                  "lat" : 35.7116264,
                  "lng" : 109.7053684
               }
            }
         },
         "place_id" : "ChIJr9TgRX9QcDYRS5ylBcNUfy0",
         "types" : [ "political", "sublocality", "sublocality_level_1" ]
      },
      {
         "address_components" : [
            {
               "long_name" : "Yan'an",
               "short_name" : "Yan'an",
               "types" : [ "locality", "political" ]
            },
            {
               "long_name" : "Shaanxi",
               "short_name" : "Shaanxi",
               "types" : [ "administrative_area_level_1", "political" ]
            },
            {
               "long_name" : "China",
               "short_name" : "CN",
               "types" : [ "country", "political" ]
            }
         ],
         "formatted_address" : "Yan'an, Shaanxi, China",
         "geometry" : {
            "bounds" : {
               "northeast" : {
                  "lat" : 37.4984813,
                  "lng" : 110.5515282
               },
               "southwest" : {
                  "lat" : 35.3446183,
                  "lng" : 107.6596121
               }
            },
            "location" : {
               "lat" : 36.585445,
               "lng" : 109.489757
            },
            "location_type" : "APPROXIMATE",
            "viewport" : {
               "northeast" : {
                  "lat" : 36.6777125,
                  "lng" : 109.5973778
               },
               "southwest" : {
                  "lat" : 36.4835202,
                  "lng" : 109.3626523
               }
            }
         },
         "place_id" : "ChIJR7mHzQIkbjYRU64TZqYwUZI",
         "types" : [ "locality", "political" ]
      },
      {
         "address_components" : [
            {
               "long_name" : "Shaanxi",
               "short_name" : "Shaanxi",
               "types" : [ "administrative_area_level_1", "political" ]
            },
            {
               "long_name" : "China",
               "short_name" : "CN",
               "types" : [ "country", "political" ]
            }
         ],
         "formatted_address" : "Shaanxi, China",
         "geometry" : {
            "bounds" : {
               "northeast" : {
                  "lat" : 39.5870105,
                  "lng" : 111.2480544
               },
               "southwest" : {
                  "lat" : 31.7050598,
                  "lng" : 105.491949
               }
            },
            "location" : {
               "lat" : 34.265503,
               "lng" : 108.954348
            },
            "location_type" : "APPROXIMATE",
            "viewport" : {
               "northeast" : {
                  "lat" : 39.5870105,
                  "lng" : 111.2480544
               },
               "southwest" : {
                  "lat" : 31.7050598,
                  "lng" : 105.491949
               }
            }
         },
         "place_id" : "ChIJn6frE2B6YzYRFldhy29uyUE",
         "types" : [ "administrative_area_level_1", "political" ]
      },
      {
         "address_components" : [
            {
               "long_name" : "China",
               "short_name" : "CN",
               "types" : [ "country", "political" ]
            }
         ],
         "formatted_address" : "China",
         "geometry" : {
            "bounds" : {
               "northeast" : {
                  "lat" : 53.56097399999999,
                  "lng" : 134.7728099
               },
               "southwest" : {
                  "lat" : 17.9996,
                  "lng" : 73.4994136
               }
            },
            "location" : {
               "lat" : 35.86166,
               "lng" : 104.195397
            },
            "location_type" : "APPROXIMATE",
            "viewport" : {
               "northeast" : {
                  "lat" : 53.56097399999999,
                  "lng" : 134.7726951
               },
               "southwest" : {
                  "lat" : 18.1618061,
                  "lng" : 73.5034261
               }
            }
         },
         "place_id" : "ChIJwULG5WSOUDERbzafNHyqHZU",
         "types" : [ "country", "political" ]
      }
   ],
   "status" : "OK"
}
