{"results":[{"address_components":[{"long_name":"Unnamed Road","short_name":"Unnamed Road","types":["route"]},{"long_name":"Datong Xian","short_name":"Datong Xian","types":["political","sublocality","sublocality_level_1"]},{"long_name":"Datong Shi","short_name":"Datong Shi","types":["locality","political"]},{"long_name":"Shanxi Sheng","short_name":"Shanxi Sheng","types":["administrative_area_level_1","political"]},{"long_name":"China","short_name":"CN","types":["country","political"]}],"formatted_address":"Unnamed Road, Datong Xian, Datong Shi, Shanxi Sheng, China","place_id":"ChIJcXKBLCvN_DURhM7hx_m-_i8","geometry":{"bounds":{"northeast":{"lat":40.0730905,"lng":113.6211134},"southwest":{"lat":40.0603983,"lng":113.6130911}},"location":{"lat":40.068533599999988,"lng":113.6131033},"location_type":"GEOMETRIC_CENTER","types":null},"types":["route"]},{"address_components":[{"long_name":"Datong","short_name":"Datong","types":["political","sublocality","sublocality_level_1"]},{"long_name":"Datong","short_name":"Datong","types":["locality","political"]},{"long_name":"Shanxi","short_name":"Shanxi","types":["administrative_area_level_1","political"]},{"long_name":"China","short_name":"CN","types":["country","political"]}],"formatted_address":"Datong, Shanxi, China","place_id":"ChIJ-bNIBvAy4zUR7fu9ayGrb1M","geometry":{"bounds":{"northeast":{"lat":40.2547942,"lng":113.8699724},"southwest":{"lat":39.7195377,"lng":113.3290107}},"location":{"lat":40.040295,"lng":113.61244},"location_type":"APPROXIMATE","types":null},"types":["political","sublocality","sublocality_level_1"]},{"address_components":[{"long_name":"Datong","short_name":"Datong","types":["locality","political"]},{"long_name":"Shanxi","short_name":"Shanxi","types":["administrative_area_level_1","political"]},{"long_name":"China","short_name":"CN","types":["country","political"]}],"formatted_address":"Datong, Shanxi, China","place_id":"ChIJ9RFgFYfT4jURcwIfACCIGZY","geometry":{"bounds":{"northeast":{"lat":40.7373523,"lng":114.5689224},"southwest":{"lat":39.048278,"lng":112.5783793}},"location":{"lat":40.076763,"lng":113.300129},"location_type":"APPROXIMATE","types":null},"types":["locality","political"]},{"address_components":[{"long_name":"Shanxi","short_name":"Shanxi","types":["administrative_area_level_1","political"]},{"long_name":"China","short_name":"CN","types":["country","political"]}],"formatted_address":"Shanxi, China","place_id":"ChIJAZbireuoCjYRL-LvlMM8zpw","geometry":{"bounds":{"northeast":{"lat":40.7373523,"lng":114.5689224},"southwest":{"lat":34.5819351,"lng":110.2302481}},"location":{"lat":37.873499,"lng":112.562678},"location_type":"APPROXIMATE","types":null},"types":["administrative_area_level_1","political"]},{"address_components":[{"long_name":"China","short_name":"CN","types":["country","political"]}],"formatted_address":"China","place_id":"ChIJwULG5WSOUDERbzafNHyqHZU","geometry":{"bounds":{"northeast":{"lat":53.560973999999987,"lng":134.7728099},"southwest":{"lat":17.9996,"lng":73.4994136}},"location":{"lat":35.86166,"lng":104.195397},"location_type":"APPROXIMATE","types":null},"types":["country","political"]}],"City":null,"IsValid":true}