{"results":[{"address_components":[{"long_name":"503 Xian Dao","short_name":"X503","types":["route"]},{"long_name":"Duolun Xian","short_name":"Duolun Xian","types":["political","sublocality","sublocality_level_1"]},{"long_name":"Xilinguole Meng","short_name":"Xilinguole Meng","types":["locality","political"]},{"long_name":"Neimenggu Zizhiqu","short_name":"Neimenggu Zizhiqu","types":["administrative_area_level_1","political"]},{"long_name":"China","short_name":"CN","types":["country","political"]}],"formatted_address":"503 Xian Dao, Duolun Xian, Xilinguole Meng, Neimenggu Zizhiqu, China","place_id":"ChIJPS0BYZP8HF4RKE6-p8OCa1Y","geometry":{"bounds":{"northeast":{"lat":42.4221364,"lng":116.7952182},"southwest":{"lat":42.3986586,"lng":116.7781094}},"location":{"lat":42.4090752,"lng":116.7850328},"location_type":"GEOMETRIC_CENTER","types":null},"types":["route"]},{"address_components":[{"long_name":"Duolun","short_name":"Duolun","types":["political","sublocality","sublocality_level_1"]},{"long_name":"Xilin Gol","short_name":"Xilin Gol","types":["locality","political"]},{"long_name":"Inner Mongolia","short_name":"Inner Mongolia","types":["administrative_area_level_1","political"]},{"long_name":"China","short_name":"CN","types":["country","political"]}],"formatted_address":"Duolun, Xilin Gol, Inner Mongolia, China","place_id":"ChIJH4FAfjsSHV4RKnFOfdM098M","geometry":{"bounds":{"northeast":{"lat":42.6147319,"lng":116.9185237},"southwest":{"lat":41.776381,"lng":115.920426}},"location":{"lat":42.203591,"lng":116.485556},"location_type":"APPROXIMATE","types":null},"types":["political","sublocality","sublocality_level_1"]},{"address_components":[{"long_name":"Xilin Gol","short_name":"Xilin Gol","types":["locality","political"]},{"long_name":"Inner Mongolia","short_name":"Inner Mongolia","types":["administrative_area_level_1","political"]},{"long_name":"China","short_name":"CN","types":["country","political"]}],"formatted_address":"Xilin Gol, Inner Mongolia, China","place_id":"ChIJ_Uv7w4a4BV4RS_WjfJ6wFZ0","geometry":{"bounds":{"northeast":{"lat":46.7749074,"lng":119.9845691},"southwest":{"lat":41.5713982,"lng":111.1509723}},"location":{"lat":43.933454,"lng":116.048222},"location_type":"APPROXIMATE","types":null},"types":["locality","political"]},{"address_components":[{"long_name":"Inner Mongolia","short_name":"Inner Mongolia","types":["administrative_area_level_1","political"]},{"long_name":"China","short_name":"CN","types":["country","political"]}],"formatted_address":"Inner Mongolia, China","place_id":"ChIJ3xRp0kvMBTYRUOnCbYFGl9U","geometry":{"bounds":{"northeast":{"lat":53.337177999999987,"lng":126.0755856},"southwest":{"lat":37.4067797,"lng":97.1727628}},"location":{"lat":40.81739,"lng":111.76629},"location_type":"APPROXIMATE","types":null},"types":["administrative_area_level_1","political"]},{"address_components":[{"long_name":"China","short_name":"CN","types":["country","political"]}],"formatted_address":"China","place_id":"ChIJwULG5WSOUDERbzafNHyqHZU","geometry":{"bounds":{"northeast":{"lat":53.560973999999987,"lng":134.7728099},"southwest":{"lat":17.9996,"lng":73.4994136}},"location":{"lat":35.86166,"lng":104.195397},"location_type":"APPROXIMATE","types":null},"types":["country","political"]}],"City":null,"IsValid":true}