{"results":[{"address_components":[{"long_name":"30","short_name":"30","types":["street_number"]},{"long_name":"Jing Wei Si Dao Jie","short_name":"Jing Wei Si Dao Jie","types":["route"]},{"long_name":"Daoli Qu","short_name":"Daoli Qu","types":["political","sublocality","sublocality_level_1"]},{"long_name":"Haerbin Shi","short_name":"Haerbin Shi","types":["locality","political"]},{"long_name":"Heilongjiang Sheng","short_name":"Heilongjiang Sheng","types":["administrative_area_level_1","political"]},{"long_name":"China","short_name":"CN","types":["country","political"]},{"long_name":"150010","short_name":"150010","types":["postal_code"]}],"formatted_address":"30 Jing Wei Si Dao Jie, Daoli Qu, Haerbin Shi, Heilongjiang Sheng, China, 150010","place_id":"ChIJ1b0bZW6AQ14RZFk_UpCQmFM","geometry":{"bounds":{"northeast":{"lat":0.0,"lng":0.0},"southwest":{"lat":0.0,"lng":0.0}},"location":{"lat":45.766232,"lng":126.61786},"location_type":"ROOFTOP","types":null},"types":["street_address"]},{"address_components":[{"long_name":"Daoli","short_name":"Daoli","types":["political","sublocality","sublocality_level_1"]},{"long_name":"Harbin","short_name":"Harbin","types":["locality","political"]},{"long_name":"Heilongjiang","short_name":"Heilongjiang","types":["administrative_area_level_1","political"]},{"long_name":"China","short_name":"CN","types":["country","political"]}],"formatted_address":"Daoli, Harbin, Heilongjiang, China","place_id":"ChIJeSgOvuWIQ14RhsdADGVMZ_c","geometry":{"bounds":{"northeast":{"lat":45.7890534,"lng":126.635139},"southwest":{"lat":45.549539499999987,"lng":126.1501859}},"location":{"lat":45.755776999999988,"lng":126.616957},"location_type":"APPROXIMATE","types":null},"types":["political","sublocality","sublocality_level_1"]},{"address_components":[{"long_name":"Harbin","short_name":"Harbin","types":["locality","political"]},{"long_name":"Heilongjiang","short_name":"Heilongjiang","types":["administrative_area_level_1","political"]},{"long_name":"China","short_name":"CN","types":["country","political"]}],"formatted_address":"Harbin, Heilongjiang, China","place_id":"ChIJYRRkpvhkQ14R1SygWnOSfF4","geometry":{"bounds":{"northeast":{"lat":46.6743866,"lng":130.24084},"southwest":{"lat":44.0622367,"lng":125.6878944}},"location":{"lat":45.803774999999987,"lng":126.534967},"location_type":"APPROXIMATE","types":null},"types":["locality","political"]},{"address_components":[{"long_name":"150018","short_name":"150018","types":["postal_code"]},{"long_name":"Daoli","short_name":"Daoli","types":["political","sublocality","sublocality_level_1"]},{"long_name":"Harbin","short_name":"Harbin","types":["locality","political"]},{"long_name":"Heilongjiang","short_name":"Heilongjiang","types":["administrative_area_level_1","political"]},{"long_name":"China","short_name":"CN","types":["country","political"]}],"formatted_address":"Daoli, Harbin, Heilongjiang, China, 150018","place_id":"ChIJT8CecWqAQ14RSr1Q3pWDzF0","geometry":{"bounds":{"northeast":{"lat":45.8035678,"lng":126.6288945},"southwest":{"lat":45.7581935,"lng":126.5327338}},"location":{"lat":45.7713747,"lng":126.6106123},"location_type":"APPROXIMATE","types":null},"types":["postal_code"]},{"address_components":[{"long_name":"150010","short_name":"150010","types":["postal_code"]},{"long_name":"Daoli","short_name":"Daoli","types":["political","sublocality","sublocality_level_1"]},{"long_name":"Harbin","short_name":"Harbin","types":["locality","political"]},{"long_name":"Heilongjiang","short_name":"Heilongjiang","types":["administrative_area_level_1","political"]},{"long_name":"China","short_name":"CN","types":["country","political"]}],"formatted_address":"Daoli, Harbin, Heilongjiang, China, 150010","place_id":"ChIJXdlDzG6AQ14R3eAtEg2WW0Y","geometry":{"bounds":{"northeast":{"lat":45.7834324,"lng":126.6400358},"southwest":{"lat":45.7074989,"lng":126.5497166}},"location":{"lat":45.7668965,"lng":126.6133544},"location_type":"APPROXIMATE","types":null},"types":["postal_code"]},{"address_components":[{"long_name":"150001","short_name":"150001","types":["postal_code"]},{"long_name":"Nangang","short_name":"Nangang","types":["political","sublocality","sublocality_level_1"]},{"long_name":"Harbin","short_name":"Harbin","types":["locality","political"]},{"long_name":"Heilongjiang","short_name":"Heilongjiang","types":["administrative_area_level_1","political"]},{"long_name":"China","short_name":"CN","types":["country","political"]}],"formatted_address":"Nangang, Harbin, Heilongjiang, China, 150001","place_id":"ChIJ-8dNBYx_RF4RwVsIY_ZSFbw","geometry":{"bounds":{"northeast":{"lat":45.783361199999987,"lng":126.710949},"southwest":{"lat":45.6690855,"lng":126.5499397}},"location":{"lat":45.7588178,"lng":126.6416499},"location_type":"APPROXIMATE","types":null},"types":["postal_code"]},{"address_components":[{"long_name":"150000","short_name":"150000","types":["postal_code"]},{"long_name":"Songbei","short_name":"Songbei","types":["political","sublocality","sublocality_level_1"]},{"long_name":"Harbin","short_name":"Harbin","types":["locality","political"]},{"long_name":"Heilongjiang","short_name":"Heilongjiang","types":["administrative_area_level_1","political"]},{"long_name":"China","short_name":"CN","types":["country","political"]}],"formatted_address":"Songbei, Harbin, Heilongjiang, China, 150000","place_id":"ChIJHYOjiR-CQ14RfD-MGLbUxhI","geometry":{"bounds":{"northeast":{"lat":45.8171034,"lng":126.6600415},"southwest":{"lat":45.7083774,"lng":126.4746491}},"location":{"lat":45.8032603,"lng":126.5352453},"location_type":"APPROXIMATE","types":null},"types":["postal_code"]},{"address_components":[{"long_name":"Heilongjiang","short_name":"Heilongjiang","types":["administrative_area_level_1","political"]},{"long_name":"China","short_name":"CN","types":["country","political"]}],"formatted_address":"Heilongjiang, China","place_id":"ChIJf5YvzrYfW14RAK9gg8wDQ_0","geometry":{"bounds":{"northeast":{"lat":53.5636239,"lng":135.0956698},"southwest":{"lat":43.4257985,"lng":121.1817531}},"location":{"lat":45.742366999999987,"lng":126.661665},"location_type":"APPROXIMATE","types":null},"types":["administrative_area_level_1","political"]},{"address_components":[{"long_name":"China","short_name":"CN","types":["country","political"]}],"formatted_address":"China","place_id":"ChIJwULG5WSOUDERbzafNHyqHZU","geometry":{"bounds":{"northeast":{"lat":53.560973999999987,"lng":134.7728099},"southwest":{"lat":17.9996,"lng":73.4994136}},"location":{"lat":35.86166,"lng":104.195397},"location_type":"APPROXIMATE","types":null},"types":["country","political"]}],"City":null,"IsValid":true}