{"results":[{"address_components":[{"long_name":"Jing Wu Xian","short_name":"Jing Wu Xian","types":["route"]},{"long_name":"Keshiketeng Qi","short_name":"Keshiketeng Qi","types":["political","sublocality","sublocality_level_1"]},{"long_name":"Chifeng Shi","short_name":"Chifeng Shi","types":["locality","political"]},{"long_name":"Neimenggu Zizhiqu","short_name":"Neimenggu Zizhiqu","types":["administrative_area_level_1","political"]},{"long_name":"China","short_name":"CN","types":["country","political"]}],"formatted_address":"Jing Wu Xian, Keshiketeng Qi, Chifeng Shi, Neimenggu Zizhiqu, China","place_id":"ChIJryLy07dmHF4RSGW11tYyBS8","geometry":{"bounds":{"northeast":{"lat":42.5880737,"lng":117.3575097},"southwest":{"lat":42.5752984,"lng":117.2405851}},"location":{"lat":42.5878931,"lng":117.2974809},"location_type":"GEOMETRIC_CENTER","types":null},"types":["route"]},{"address_components":[{"long_name":"Hexigten","short_name":"Hexigten","types":["political","sublocality","sublocality_level_1"]},{"long_name":"Chifeng","short_name":"Chifeng","types":["locality","political"]},{"long_name":"Inner Mongolia","short_name":"Inner Mongolia","types":["administrative_area_level_1","political"]},{"long_name":"China","short_name":"CN","types":["country","political"]}],"formatted_address":"Hexigten, Chifeng, Inner Mongolia, China","place_id":"ChIJIwfB_1oWG14RtNJEC3-f16k","geometry":{"bounds":{"northeast":{"lat":44.2352084,"lng":118.4586464},"southwest":{"lat":42.3876081,"lng":116.3565028}},"location":{"lat":43.264989,"lng":117.545798},"location_type":"APPROXIMATE","types":null},"types":["political","sublocality","sublocality_level_1"]},{"address_components":[{"long_name":"Chifeng","short_name":"Chifeng","types":["locality","political"]},{"long_name":"Inner Mongolia","short_name":"Inner Mongolia","types":["administrative_area_level_1","political"]},{"long_name":"China","short_name":"CN","types":["country","political"]}],"formatted_address":"Chifeng, Inner Mongolia, China","place_id":"ChIJiUgqMhclGl4RZE-jjlqw9LU","geometry":{"bounds":{"northeast":{"lat":45.2523087,"lng":120.9876093},"southwest":{"lat":41.2823131,"lng":116.3565028}},"location":{"lat":42.257817,"lng":118.886856},"location_type":"APPROXIMATE","types":null},"types":["locality","political"]},{"address_components":[{"long_name":"Inner Mongolia","short_name":"Inner Mongolia","types":["administrative_area_level_1","political"]},{"long_name":"China","short_name":"CN","types":["country","political"]}],"formatted_address":"Inner Mongolia, China","place_id":"ChIJ3xRp0kvMBTYRUOnCbYFGl9U","geometry":{"bounds":{"northeast":{"lat":53.337177999999987,"lng":126.0755856},"southwest":{"lat":37.4067797,"lng":97.1727628}},"location":{"lat":40.81739,"lng":111.76629},"location_type":"APPROXIMATE","types":null},"types":["administrative_area_level_1","political"]},{"address_components":[{"long_name":"China","short_name":"CN","types":["country","political"]}],"formatted_address":"China","place_id":"ChIJwULG5WSOUDERbzafNHyqHZU","geometry":{"bounds":{"northeast":{"lat":53.560973999999987,"lng":134.7728099},"southwest":{"lat":17.9996,"lng":73.4994136}},"location":{"lat":35.86166,"lng":104.195397},"location_type":"APPROXIMATE","types":null},"types":["country","political"]}],"City":null,"IsValid":true}