{"results":[{"address_components":[{"long_name":"Nan Huan Lu","short_name":"Nan Huan Lu","types":["route"]},{"long_name":"Datong Shi","short_name":"Datong Shi","types":["locality","political"]},{"long_name":"Shanxi Sheng","short_name":"Shanxi Sheng","types":["administrative_area_level_1","political"]},{"long_name":"China","short_name":"CN","types":["country","political"]}],"formatted_address":"Nan Huan Lu, Datong Shi, Shanxi Sheng, China","place_id":"ChIJSZjVoADU4jURK4Y_1eVdNzg","geometry":{"bounds":{"northeast":{"lat":40.0634035,"lng":113.2881853},"southwest":{"lat":40.0633715,"lng":113.2850082}},"location":{"lat":40.0633816,"lng":113.2865968},"location_type":"GEOMETRIC_CENTER","types":null},"types":["route"]},{"address_components":[{"long_name":"Datong","short_name":"Datong","types":["locality","political"]},{"long_name":"Shanxi","short_name":"Shanxi","types":["administrative_area_level_1","political"]},{"long_name":"China","short_name":"CN","types":["country","political"]}],"formatted_address":"Datong, Shanxi, China","place_id":"ChIJ9RFgFYfT4jURcwIfACCIGZY","geometry":{"bounds":{"northeast":{"lat":40.7373523,"lng":114.5689224},"southwest":{"lat":39.048278,"lng":112.5783793}},"location":{"lat":40.076763,"lng":113.300129},"location_type":"APPROXIMATE","types":null},"types":["locality","political"]},{"address_components":[{"long_name":"037006","short_name":"037006","types":["postal_code"]},{"long_name":"Nanjiao","short_name":"Nanjiao","types":["political","sublocality","sublocality_level_1"]},{"long_name":"Datong","short_name":"Datong","types":["locality","political"]},{"long_name":"Shanxi","short_name":"Shanxi","types":["administrative_area_level_1","political"]},{"long_name":"China","short_name":"CN","types":["country","political"]}],"formatted_address":"Nanjiao, Datong, Shanxi, China, 037006","place_id":"ChIJWSTH_7DT4jUR8NUB75Q7gxI","geometry":{"bounds":{"northeast":{"lat":40.1084271,"lng":113.2930396},"southwest":{"lat":40.0594993,"lng":113.2394453}},"location":{"lat":40.0942867,"lng":113.2484614},"location_type":"APPROXIMATE","types":null},"types":["postal_code"]},{"address_components":[{"long_name":"Shanxi","short_name":"Shanxi","types":["administrative_area_level_1","political"]},{"long_name":"China","short_name":"CN","types":["country","political"]}],"formatted_address":"Shanxi, China","place_id":"ChIJAZbireuoCjYRL-LvlMM8zpw","geometry":{"bounds":{"northeast":{"lat":40.7373523,"lng":114.5689224},"southwest":{"lat":34.5819351,"lng":110.2302481}},"location":{"lat":37.873499,"lng":112.562678},"location_type":"APPROXIMATE","types":null},"types":["administrative_area_level_1","political"]},{"address_components":[{"long_name":"China","short_name":"CN","types":["country","political"]}],"formatted_address":"China","place_id":"ChIJwULG5WSOUDERbzafNHyqHZU","geometry":{"bounds":{"northeast":{"lat":53.560973999999987,"lng":134.7728099},"southwest":{"lat":17.9996,"lng":73.4994136}},"location":{"lat":35.86166,"lng":104.195397},"location_type":"APPROXIMATE","types":null},"types":["country","political"]}],"City":null,"IsValid":true}