{"results":[{"address_components":[{"long_name":"698","short_name":"698","types":["street_number"]},{"long_name":"Commercial Street","short_name":"Commercial St","types":["route"]},{"long_name":"Provincetown","short_name":"Provincetown","types":["locality","political"]},{"long_name":"Barnstable County","short_name":"Barnstable County","types":["administrative_area_level_2","political"]},{"long_name":"Massachusetts","short_name":"MA","types":["administrative_area_level_1","political"]},{"long_name":"United States","short_name":"US","types":["country","political"]},{"long_name":"02657","short_name":"02657","types":["postal_code"]},{"long_name":"1761","short_name":"1761","types":["postal_code_suffix"]}],"formatted_address":"698 Commercial St, Provincetown, MA 02657, USA","place_id":"ChIJQ_t0nzin_IkR3hq6sgrQH-M","geometry":{"bounds":{"northeast":{"lat":0.0,"lng":0.0},"southwest":{"lat":0.0,"lng":0.0}},"types":null},"types":["street_address"]},{"address_components":[{"long_name":"Provincetown","short_name":"Provincetown","types":["locality","political"]},{"long_name":"Barnstable County","short_name":"Barnstable County","types":["administrative_area_level_2","political"]},{"long_name":"Massachusetts","short_name":"MA","types":["administrative_area_level_1","political"]},{"long_name":"United States","short_name":"US","types":["country","political"]}],"formatted_address":"Provincetown, MA, USA","place_id":"ChIJIciDz4Cn_IkR2l7w4DqG0tg","geometry":{"bounds":{"northeast":{"lat":42.085609,"lng":-70.1467049},"southwest":{"lat":42.0170199,"lng":-70.250188}},"types":null},"types":["locality","political"]},{"address_components":[{"long_name":"02657","short_name":"02657","types":["postal_code"]},{"long_name":"Provincetown","short_name":"Provincetown","types":["locality","political"]},{"long_name":"Barnstable County","short_name":"Barnstable County","types":["administrative_area_level_2","political"]},{"long_name":"Massachusetts","short_name":"MA","types":["administrative_area_level_1","political"]},{"long_name":"United States","short_name":"US","types":["country","political"]}],"formatted_address":"Provincetown, MA 02657, USA","place_id":"ChIJ1Rjo9XCn_IkRPFIFBOcsV7s","geometry":{"bounds":{"northeast":{"lat":42.085609,"lng":-70.0191559},"southwest":{"lat":41.985825899999988,"lng":-70.250188}},"types":null},"types":["postal_code"]},{"address_components":[{"long_name":"Barnstable Town","short_name":"Barnstable Town","types":["political"]},{"long_name":"Barnstable County","short_name":"Barnstable County","types":["administrative_area_level_2","political"]},{"long_name":"Massachusetts","short_name":"MA","types":["administrative_area_level_1","political"]},{"long_name":"United States","short_name":"US","types":["country","political"]}],"formatted_address":"Barnstable Town, MA, USA","place_id":"ChIJ1QNdolU2-4kRomnSpBCoBss","geometry":{"bounds":{"northeast":{"lat":42.082337,"lng":-69.9282611},"southwest":{"lat":41.5133391,"lng":-70.6947996}},"types":null},"types":["political"]},{"address_components":[{"long_name":"Barnstable County","short_name":"Barnstable County","types":["administrative_area_level_2","political"]},{"long_name":"Massachusetts","short_name":"MA","types":["administrative_area_level_1","political"]},{"long_name":"United States","short_name":"US","types":["country","political"]}],"formatted_address":"Barnstable County, MA, USA","place_id":"ChIJNznEmus2-4kR1XIbb_9HhCY","geometry":{"bounds":{"northeast":{"lat":42.134515,"lng":-69.85886099999999},"southwest":{"lat":41.4641101,"lng":-70.7584639}},"types":null},"types":["administrative_area_level_2","political"]},{"address_components":[{"long_name":"Massachusetts","short_name":"MA","types":["administrative_area_level_1","establishment","point_of_interest","political"]},{"long_name":"United States","short_name":"US","types":["country","political"]}],"formatted_address":"Massachusetts, USA","place_id":"ChIJ_b9z6W1l44kRHA2DVTbQxkU","geometry":{"bounds":{"northeast":{"lat":42.88679,"lng":-69.85886099999999},"southwest":{"lat":41.187053000000013,"lng":-73.5081419}},"types":null},"types":["administrative_area_level_1","establishment","point_of_interest","political"]},{"address_components":[{"long_name":"United States","short_name":"US","types":["country","political"]}],"formatted_address":"United States","place_id":"ChIJCzYy5IS16lQRQrfeQ5K5Oxw","geometry":{"bounds":{"northeast":{"lat":71.5388001,"lng":-66.885417},"southwest":{"lat":18.7763,"lng":170.5957}},"types":null},"types":["country","political"]}],"City":null,"IsValid":false}