{"results":[{"address_components":[{"long_name":"Unnamed Road","short_name":"Unnamed Road","types":["route"]},{"long_name":"Bălan","short_name":"Bălan","types":["locality","political"]},{"long_name":"Comuna Bălan","short_name":"Comuna Bălan","types":["administrative_area_level_2","political"]},{"long_name":"Județul Sălaj","short_name":"SJ","types":["administrative_area_level_1","political"]},{"long_name":"Romania","short_name":"RO","types":["country","political"]},{"long_name":"457025","short_name":"457025","types":["postal_code"]}],"formatted_address":"Unnamed Road, Bălan 457025, Romania","place_id":"ChIJpehwbmVPSEcRntbHwWeXxmA","geometry":{"bounds":{"northeast":{"lat":47.1598986,"lng":23.3106708},"southwest":{"lat":47.1580501,"lng":23.3100209}},"types":null},"types":["route"]},{"address_components":[{"long_name":"Bălan","short_name":"Bălan","types":["locality","political"]},{"long_name":"Balan","short_name":"Balan","types":["administrative_area_level_2","political"]},{"long_name":"Sălaj","short_name":"SJ","types":["administrative_area_level_1","political"]},{"long_name":"Romania","short_name":"RO","types":["country","political"]},{"long_name":"457025","short_name":"457025","types":["postal_code"]}],"formatted_address":"Bălan 457025, Romania","place_id":"ChIJR8UbEmtPSEcRClTnBn_Cqcc","geometry":{"bounds":{"northeast":{"lat":47.1629914,"lng":23.3259487},"southwest":{"lat":47.1384756,"lng":23.2938051}},"types":null},"types":["locality","political"]},{"address_components":[{"long_name":"457025","short_name":"457025","types":["postal_code"]},{"long_name":"Bălan","short_name":"Bălan","types":["locality","political"]},{"long_name":"Balan","short_name":"Balan","types":["administrative_area_level_2","political"]},{"long_name":"Sălaj","short_name":"SJ","types":["administrative_area_level_1","political"]},{"long_name":"Romania","short_name":"RO","types":["country","political"]}],"formatted_address":"Bălan 457025, Romania","place_id":"ChIJVfeyMXdPSEcRumN1FyuaLFg","geometry":{"bounds":{"northeast":{"lat":47.1629914,"lng":23.3259487},"southwest":{"lat":47.1384756,"lng":23.2938051}},"types":null},"types":["postal_code"]},{"address_components":[{"long_name":"Balan","short_name":"Balan","types":["administrative_area_level_2","political"]},{"long_name":"Sălaj","short_name":"SJ","types":["administrative_area_level_1","political"]},{"long_name":"Romania","short_name":"RO","types":["country","political"]}],"formatted_address":"Balan, Romania","place_id":"ChIJrYCFFIFFSEcRk-_wdZHJHoc","geometry":{"bounds":{"northeast":{"lat":47.2156169,"lng":23.3682839},"southwest":{"lat":47.0952439,"lng":23.2059519}},"types":null},"types":["administrative_area_level_2","political"]},{"address_components":[{"long_name":"Sălaj","short_name":"SJ","types":["administrative_area_level_1","political"]},{"long_name":"Romania","short_name":"RO","types":["country","political"]}],"formatted_address":"Sălaj, Romania","place_id":"ChIJy4t2WktHSEcRk1kYidZ35lY","geometry":{"bounds":{"northeast":{"lat":47.460111,"lng":23.8409952},"southwest":{"lat":46.854099,"lng":22.493326}},"types":null},"types":["administrative_area_level_1","political"]},{"address_components":[{"long_name":"Romania","short_name":"RO","types":["country","political"]}],"formatted_address":"Romania","place_id":"ChIJw3aJlSb_sUARlLEEqJJP74Q","geometry":{"bounds":{"northeast":{"lat":48.265274,"lng":29.778399999999991},"southwest":{"lat":43.6186193,"lng":20.2617593}},"types":null},"types":["country","political"]}],"City":null,"IsValid":false}