{"results":[{"address_components":[{"long_name":"DN1G","short_name":"DN1G","types":["route"]},{"long_name":"Chechiș","short_name":"Chechiș","types":["locality","political"]},{"long_name":"Comuna Bălan","short_name":"Comuna Bălan","types":["administrative_area_level_2","political"]},{"long_name":"Județul Sălaj","short_name":"SJ","types":["administrative_area_level_1","political"]},{"long_name":"Romania","short_name":"RO","types":["country","political"]},{"long_name":"457026","short_name":"457026","types":["postal_code"]}],"formatted_address":"DN1G, Chechiș 457026, Romania","place_id":"ChIJtThZH_hFSEcRc2zcpewX4N8","geometry":{"bounds":{"northeast":{"lat":47.178402299999988,"lng":23.3107878},"southwest":{"lat":47.1776077,"lng":23.3100105}},"types":null},"types":["route"]},{"address_components":[{"long_name":"Chechiș","short_name":"Chechiș","types":["locality","political"]},{"long_name":"Comuna Bălan","short_name":"Comuna Bălan","types":["administrative_area_level_2","political"]},{"long_name":"Județul Sălaj","short_name":"SJ","types":["administrative_area_level_1","political"]},{"long_name":"Romania","short_name":"RO","types":["country","political"]},{"long_name":"457026","short_name":"457026","types":["postal_code"]}],"formatted_address":"Chechiș 457026, Romania","place_id":"ChIJM0sCs_dFSEcRyyxs47ijh84","geometry":{"bounds":{"northeast":{"lat":47.1873793,"lng":23.3204126},"southwest":{"lat":47.1645087,"lng":23.2952642}},"types":null},"types":["locality","political"]},{"address_components":[{"long_name":"457026","short_name":"457026","types":["postal_code"]},{"long_name":"Chechiș","short_name":"Chechiș","types":["locality","political"]},{"long_name":"Comuna Bălan","short_name":"Comuna Bălan","types":["administrative_area_level_2","political"]},{"long_name":"Județul Sălaj","short_name":"SJ","types":["administrative_area_level_1","political"]},{"long_name":"Romania","short_name":"RO","types":["country","political"]}],"formatted_address":"Chechiș 457026, Romania","place_id":"ChIJv1xfwPdFSEcRDxeqE-r-S4Q","geometry":{"bounds":{"northeast":{"lat":47.1873793,"lng":23.3204126},"southwest":{"lat":47.1645087,"lng":23.2952642}},"types":null},"types":["postal_code"]},{"address_components":[{"long_name":"Balan","short_name":"Balan","types":["administrative_area_level_2","political"]},{"long_name":"Sălaj","short_name":"SJ","types":["administrative_area_level_1","political"]},{"long_name":"Romania","short_name":"RO","types":["country","political"]}],"formatted_address":"Balan, Romania","place_id":"ChIJrYCFFIFFSEcRk-_wdZHJHoc","geometry":{"bounds":{"northeast":{"lat":47.2156169,"lng":23.3682839},"southwest":{"lat":47.0952439,"lng":23.2059519}},"types":null},"types":["administrative_area_level_2","political"]},{"address_components":[{"long_name":"Sălaj","short_name":"SJ","types":["administrative_area_level_1","political"]},{"long_name":"Romania","short_name":"RO","types":["country","political"]}],"formatted_address":"Sălaj, Romania","place_id":"ChIJy4t2WktHSEcRk1kYidZ35lY","geometry":{"bounds":{"northeast":{"lat":47.460111,"lng":23.8409952},"southwest":{"lat":46.854099,"lng":22.493326}},"types":null},"types":["administrative_area_level_1","political"]},{"address_components":[{"long_name":"Romania","short_name":"RO","types":["country","political"]}],"formatted_address":"Romania","place_id":"ChIJw3aJlSb_sUARlLEEqJJP74Q","geometry":{"bounds":{"northeast":{"lat":48.265274,"lng":29.778399999999991},"southwest":{"lat":43.6186193,"lng":20.2617593}},"types":null},"types":["country","political"]}],"City":null,"IsValid":false}