{"results":[{"address_components":[{"long_name":"Tai Guan Lu","short_name":"Tai Guan Lu","types":["route"]},{"long_name":"Huairou Qu","short_name":"Huairou Qu","types":["political","sublocality","sublocality_level_1"]},{"long_name":"Beijing","short_name":"Beijing","types":["locality","political"]},{"long_name":"Beijing Shi","short_name":"Beijing Shi","types":["administrative_area_level_1","political"]},{"long_name":"China","short_name":"CN","types":["country","political"]},{"long_name":"101407","short_name":"101407","types":["postal_code"]}],"formatted_address":"Tai Guan Lu, Huairou Qu, Beijing Shi, China, 101407","place_id":"ChIJGdcN39E88TURglwxCeUNlIU","geometry":{"bounds":{"northeast":{"lat":40.3429688,"lng":116.6180649},"southwest":{"lat":40.3425861,"lng":116.6134499}},"types":null},"types":["route"]},{"address_components":[{"long_name":"Huairou","short_name":"Huairou","types":["political","sublocality","sublocality_level_1"]},{"long_name":"Beijing","short_name":"Beijing","types":["locality","political"]},{"long_name":"Beijing","short_name":"Beijing","types":["administrative_area_level_1","political"]},{"long_name":"China","short_name":"CN","types":["country","political"]}],"formatted_address":"Huairou, Beijing, China","place_id":"ChIJ8_OT4EA98TUR_ALOyFKht0U","geometry":{"bounds":{"northeast":{"lat":41.0608159,"lng":116.8869724},"southwest":{"lat":40.2336757,"lng":116.2838224}},"types":null},"types":["political","sublocality","sublocality_level_1"]},{"address_components":[{"long_name":"Beijing","short_name":"Beijing","types":["locality","political"]},{"long_name":"Beijing","short_name":"Beijing","types":["administrative_area_level_1","political"]},{"long_name":"China","short_name":"CN","types":["country","political"]}],"formatted_address":"Beijing, China","place_id":"ChIJuSwU55ZS8DURiqkPryBWYrk","geometry":{"bounds":{"northeast":{"lat":41.0608159,"lng":117.514625},"southwest":{"lat":39.4427581,"lng":115.4234116}},"types":null},"types":["locality","political"]},{"address_components":[{"long_name":"101400","short_name":"101400","types":["postal_code"]},{"long_name":"Huairou","short_name":"Huairou","types":["political","sublocality","sublocality_level_1"]},{"long_name":"Beijing","short_name":"Beijing","types":["locality","political"]},{"long_name":"Beijing","short_name":"Beijing","types":["administrative_area_level_1","political"]},{"long_name":"China","short_name":"CN","types":["country","political"]}],"formatted_address":"Huairou, Beijing, China, 101400","place_id":"ChIJK2AvGRY98TUR5k0HvjRKQnw","geometry":{"bounds":{"northeast":{"lat":40.3798319,"lng":116.7039685},"southwest":{"lat":40.2890303,"lng":116.5536129}},"types":null},"types":["postal_code"]},{"address_components":[{"long_name":"101407","short_name":"101407","types":["postal_code"]},{"long_name":"Huairou","short_name":"Huairou","types":["political","sublocality","sublocality_level_1"]},{"long_name":"Beijing","short_name":"Beijing","types":["locality","political"]},{"long_name":"Beijing","short_name":"Beijing","types":["administrative_area_level_1","political"]},{"long_name":"China","short_name":"CN","types":["country","political"]}],"formatted_address":"Huairou, Beijing, China, 101407","place_id":"ChIJqwzi1oA78TURfp0LC7GlhGs","geometry":{"bounds":{"northeast":{"lat":40.4491941,"lng":116.702495},"southwest":{"lat":40.2738546,"lng":116.5860512}},"types":null},"types":["postal_code"]},{"address_components":[{"long_name":"Beijing","short_name":"Beijing","types":["administrative_area_level_1","political"]},{"long_name":"China","short_name":"CN","types":["country","political"]}],"formatted_address":"Beijing, China","place_id":"ChIJuSwU55ZS8DURp8_dOLuVd8A","geometry":{"bounds":{"northeast":{"lat":41.0608159,"lng":117.514625},"southwest":{"lat":39.4427581,"lng":115.4234116}},"types":null},"types":["administrative_area_level_1","political"]},{"address_components":[{"long_name":"China","short_name":"CN","types":["country","political"]}],"formatted_address":"China","place_id":"ChIJwULG5WSOUDERbzafNHyqHZU","geometry":{"bounds":{"northeast":{"lat":53.560973999999987,"lng":134.7728099},"southwest":{"lat":17.9996,"lng":73.4994136}},"types":null},"types":["country","political"]}],"City":null,"IsValid":false}